{"head":{"vars":["name","name_today","pid","key","lat","long","pos"]},"results":{"bindings":[{"name":"Agram","name_today":"Zagreb","pid":"https://www.geonames.org/3186886/zagreb.html","key":"Agram","lat":"45.81444","long":"15.97798","pos":"Bae_MF_6-1_4418"},{"name":"Agram","name_today":"Zagreb","pid":"https://www.geonames.org/3186886/zagreb.html","key":"Agram","lat":"45.81444","long":"15.97798","pos":"Bae_MF_6-1_4751"},{"name":"Agram","name_today":"Zagreb","pid":"https://www.geonames.org/3186886/zagreb.html","key":"Agram","lat":"45.81444","long":"15.97798","pos":"Bae_MF_6-1_4755"},{"name":"Agram","name_today":"Zagreb","pid":"https://www.geonames.org/3186886/zagreb.html","key":"Agram","lat":"45.81444","long":"15.97798","pos":"Bae_TB_7_10345"},{"name":"Agram","name_today":"Zagreb","pid":"https://www.geonames.org/3186886/zagreb.html","key":"Agram","lat":"45.81444","long":"15.97798","pos":"Bae_TB_7_10387"},{"name":"Agram","name_today":"Zagreb","pid":"https://www.geonames.org/3186886/zagreb.html","key":"Agram","lat":"45.81444","long":"15.97798","pos":"Bae_TB_7_10400"},{"name":"Agram","name_today":"Zagreb","pid":"https://www.geonames.org/3186886/zagreb.html","key":"Agram","lat":"45.81444","long":"15.97798","pos":"Bae_TB_7_1844"},{"name":"Agram","name_today":"Zagreb","pid":"https://www.geonames.org/3186886/zagreb.html","key":"Agram","lat":"45.81444","long":"15.97798","pos":"Bae_TB_7_1848"},{"name":"Agram","name_today":"Zagreb","pid":"https://www.geonames.org/3186886/zagreb.html","key":"Agram","lat":"45.81444","long":"15.97798","pos":"Bae_TB_7_1893"},{"name":"Agram","name_today":"Zagreb","pid":"https://www.geonames.org/3186886/zagreb.html","key":"Agram","lat":"45.81444","long":"15.97798","pos":"Bae_TB_7_1920"},{"name":"Agram","name_today":"Zagreb","pid":"https://www.geonames.org/3186886/zagreb.html","key":"Agram","lat":"45.81444","long":"15.97798","pos":"Bae_TB_7_2005"},{"name":"Agram","name_today":"Zagreb","pid":"https://www.geonames.org/3186886/zagreb.html","key":"Agram","lat":"45.81444","long":"15.97798","pos":"Bae_TB_7_2015"},{"name":"Agram","name_today":"Zagreb","pid":"https://www.geonames.org/3186886/zagreb.html","key":"Agram","lat":"45.81444","long":"15.97798","pos":"Bae_TB_7_2026"},{"name":"Agram","name_today":"Zagreb","pid":"https://www.geonames.org/3186886/zagreb.html","key":"Agram","lat":"45.81444","long":"15.97798","pos":"Bae_TB_7_2037"},{"name":"Agram","name_today":"Zagreb","pid":"https://www.geonames.org/3186886/zagreb.html","key":"Agram","lat":"45.81444","long":"15.97798","pos":"Bae_TB_7_2041"},{"name":"Agram","name_today":"Zagreb","pid":"https://www.geonames.org/3186886/zagreb.html","key":"Agram","lat":"45.81444","long":"15.97798","pos":"Bae_TB_7_9894"},{"name":"Vereinigte Staaten von Amerika","name_today":"United States of America","pid":"https://www.geonames.org/6252001/united-states.html","key":"Amerika","lat":"39.76","long":"-98.5","pos":"Bae_TB_7_396"},{"name":"Vereinigte Staaten von Amerika","name_today":"United States of America","pid":"https://www.geonames.org/6252001/united-states.html","key":"Amerika","lat":"39.76","long":"-98.5","pos":"Bae_TB_7_4258"},{"name":"Bad Ischl","name_today":"","pid":"https://www.geonames.org/2782052/bad-ischl.html","key":"BadIschl","lat":"47.71109","long":"13.61893","pos":"Bae_TB_7_12306"},{"name":"Belgien","name_today":"","pid":"https://www.geonames.org/2802361/kingdom-of-belgium.html","key":"Belgien","lat":"50.75","long":"4.5","pos":"Bae_MF_6-2_923"},{"name":"Berlin","name_today":"","pid":"https://www.geonames.org/6547383/berlin-stadt.html","key":"Berlin","lat":"52.5233","long":"13.41377","pos":"Bae_MF_6-1_616"},{"name":"Berlin","name_today":"","pid":"https://www.geonames.org/6547383/berlin-stadt.html","key":"Berlin","lat":"52.5233","long":"13.41377","pos":"Bae_MF_6-1_1893"},{"name":"Berlin","name_today":"","pid":"https://www.geonames.org/6547383/berlin-stadt.html","key":"Berlin","lat":"52.5233","long":"13.41377","pos":"Bae_MF_6-1_1921"},{"name":"Biała","name_today":"Bielsko-Biała","pid":"https://www.geonames.org/3103402/bielsko-biala.html","key":"Biala","lat":"49.82245","long":"19.04686","pos":"Bae_MF_6-2_5036"},{"name":"Biała","name_today":"Bielsko-Biała","pid":"https://www.geonames.org/3103402/bielsko-biala.html","key":"Biala","lat":"49.82245","long":"19.04686","pos":"Bae_MF_6-2_5055"},{"name":"Biała","name_today":"Bielsko-Biała","pid":"https://www.geonames.org/3103402/bielsko-biala.html","key":"Biala","lat":"49.82245","long":"19.04686","pos":"Bae_MF_6-2_5112"},{"name":"Biała","name_today":"Bielsko-Biała","pid":"https://www.geonames.org/3103402/bielsko-biala.html","key":"Biala","lat":"49.82245","long":"19.04686","pos":"Bae_MF_6-2_5123"},{"name":"Biała","name_today":"Bielsko-Biała","pid":"https://www.geonames.org/3103402/bielsko-biala.html","key":"Biala","lat":"49.82245","long":"19.04686","pos":"Bae_MF_6-2_5146"},{"name":"Biała","name_today":"Bielsko-Biała","pid":"https://www.geonames.org/3103402/bielsko-biala.html","key":"Biala","lat":"49.82245","long":"19.04686","pos":"Bae_MF_6-2_5255"},{"name":"Biała","name_today":"Bielsko-Biała","pid":"https://www.geonames.org/3103402/bielsko-biala.html","key":"Biala","lat":"49.82245","long":"19.04686","pos":"Bae_MF_6-2_5263"},{"name":"Biała","name_today":"Bielsko-Biała","pid":"https://www.geonames.org/3103402/bielsko-biala.html","key":"Biala","lat":"49.82245","long":"19.04686","pos":"Bae_MF_6-2_5274"},{"name":"Biała","name_today":"Bielsko-Biała","pid":"https://www.geonames.org/3103402/bielsko-biala.html","key":"Biala","lat":"49.82245","long":"19.04686","pos":"Bae_TB_8_4395"},{"name":"Biała","name_today":"Bielsko-Biała","pid":"https://www.geonames.org/3103402/bielsko-biala.html","key":"Biala","lat":"49.82245","long":"19.04686","pos":"Bae_TB_8_4436"},{"name":"Biała","name_today":"Bielsko-Biała","pid":"https://www.geonames.org/3103402/bielsko-biala.html","key":"Biala","lat":"49.82245","long":"19.04686","pos":"Bae_TB_8_4486"},{"name":"Biała","name_today":"Bielsko-Biała","pid":"https://www.geonames.org/3103402/bielsko-biala.html","key":"Biala","lat":"49.82245","long":"19.04686","pos":"Bae_TB_8_4517"},{"name":"Biała","name_today":"Bielsko-Biała","pid":"https://www.geonames.org/3103402/bielsko-biala.html","key":"Biala","lat":"49.82245","long":"19.04686","pos":"Bae_TB_8_4629"},{"name":"Biała","name_today":"Bielsko-Biała","pid":"https://www.geonames.org/3103402/bielsko-biala.html","key":"Biala","lat":"49.82245","long":"19.04686","pos":"Bae_TB_8_4637"},{"name":"Biała","name_today":"Bielsko-Biała","pid":"https://www.geonames.org/3103402/bielsko-biala.html","key":"Biala","lat":"49.82245","long":"19.04686","pos":"Bae_TB_8_4648"},{"name":"Böhmen","name_today":"Čechy","pid":"https://www.geonames.org/3078198/cechy.html","key":"Boehmen","lat":"50","long":"14.5","pos":"Bae_MF_6-2_758"},{"name":"Böhmen","name_today":"Čechy","pid":"https://www.geonames.org/3078198/cechy.html","key":"Boehmen","lat":"50","long":"14.5","pos":"Bae_MF_6-2_1935"},{"name":"Böhmen","name_today":"Čechy","pid":"https://www.geonames.org/3078198/cechy.html","key":"Boehmen","lat":"50","long":"14.5","pos":"Bae_MF_6-2_2257"},{"name":"Böhmen","name_today":"Čechy","pid":"https://www.geonames.org/3078198/cechy.html","key":"Boehmen","lat":"50","long":"14.5","pos":"Bae_MF_6-2_2531"},{"name":"Böhmen","name_today":"Čechy","pid":"https://www.geonames.org/3078198/cechy.html","key":"Boehmen","lat":"50","long":"14.5","pos":"Bae_MF_6-2_4858"},{"name":"Böhmen","name_today":"Čechy","pid":"https://www.geonames.org/3078198/cechy.html","key":"Boehmen","lat":"50","long":"14.5","pos":"Bae_MF_6-2_4908"},{"name":"Böhmen","name_today":"Čechy","pid":"https://www.geonames.org/3078198/cechy.html","key":"Boehmen","lat":"50","long":"14.5","pos":"Bae_MF_6-2_4912"},{"name":"Böhmen","name_today":"Čechy","pid":"https://www.geonames.org/3078198/cechy.html","key":"Boehmen","lat":"50","long":"14.5","pos":"Bae_MF_6-2_4920"},{"name":"Böhmen","name_today":"Čechy","pid":"https://www.geonames.org/3078198/cechy.html","key":"Boehmen","lat":"50","long":"14.5","pos":"Bae_MF_6-2_5921"},{"name":"Böhmen","name_today":"Čechy","pid":"https://www.geonames.org/3078198/cechy.html","key":"Boehmen","lat":"50","long":"14.5","pos":"Bae_MF_6-2_5965"},{"name":"Böhmen","name_today":"Čechy","pid":"https://www.geonames.org/3078198/cechy.html","key":"Boehmen","lat":"50","long":"14.5","pos":"Bae_TB_7_12881"},{"name":"Böhmen","name_today":"Čechy","pid":"https://www.geonames.org/3078198/cechy.html","key":"Boehmen","lat":"50","long":"14.5","pos":"Bae_TB_7_441"},{"name":"Böhmen","name_today":"Čechy","pid":"https://www.geonames.org/3078198/cechy.html","key":"Boehmen","lat":"50","long":"14.5","pos":"Bae_TB_7_3610"},{"name":"Böhmen","name_today":"Čechy","pid":"https://www.geonames.org/3078198/cechy.html","key":"Boehmen","lat":"50","long":"14.5","pos":"Bae_TB_7_4932"},{"name":"Böhmen","name_today":"Čechy","pid":"https://www.geonames.org/3078198/cechy.html","key":"Boehmen","lat":"50","long":"14.5","pos":"Bae_TB_7_5028"},{"name":"Böhmen","name_today":"Čechy","pid":"https://www.geonames.org/3078198/cechy.html","key":"Boehmen","lat":"50","long":"14.5","pos":"Bae_TB_7_5055"},{"name":"Böhmen","name_today":"Čechy","pid":"https://www.geonames.org/3078198/cechy.html","key":"Boehmen","lat":"50","long":"14.5","pos":"Bae_TB_8_1039"},{"name":"Böhmen","name_today":"Čechy","pid":"https://www.geonames.org/3078198/cechy.html","key":"Boehmen","lat":"50","long":"14.5","pos":"Bae_TB_8_1085"},{"name":"Bosnien (Bosnien-Herzegowina)","name_today":"","pid":"https://www.geonames.org/3277605/bosnia-and-herzegovina.html","key":"Bosnien","lat":"44.25","long":"17.83333","pos":"Bae_MF_6-1_4626"},{"name":"Bosnien (Bosnien-Herzegowina)","name_today":"","pid":"https://www.geonames.org/3277605/bosnia-and-herzegovina.html","key":"Bosnien","lat":"44.25","long":"17.83333","pos":"Bae_MF_6-1_5139"},{"name":"Bosnien (Bosnien-Herzegowina)","name_today":"","pid":"https://www.geonames.org/3277605/bosnia-and-herzegovina.html","key":"Bosnien","lat":"44.25","long":"17.83333","pos":"Bae_TB_7_10217"},{"name":"Bosnien (Bosnien-Herzegowina)","name_today":"","pid":"https://www.geonames.org/3277605/bosnia-and-herzegovina.html","key":"Bosnien","lat":"44.25","long":"17.83333","pos":"Bae_TB_7_11278"},{"name":"Bozen","name_today":"Bolzano","pid":"https://www.geonames.org/6535953/bolzano-bozen.html","key":"Bozen","lat":"46.49272","long":"11.33358","pos":"Bae_TB_7_11711"},{"name":"Brünn","name_today":"Město Brno","pid":"https://www.geonames.org/3078609/mesto-brno.html","key":"Bruenn","lat":"49.19954","long":"16.60755","pos":"Bae_TB_8_1156"},{"name":"Most","name_today":"Bruex","pid":"https://www.geonames.org/11922564/most.html","key":"Bruex","lat":"50.5151","long":"13.61584","pos":"Bae_TB_7_2515"},{"name":"Budapest","name_today":"","pid":"https://www.geonames.org/3054638/budapest.html","key":"Budapest","lat":"47.5","long":"19.08333","pos":"Bae_MF_6-1_2888"},{"name":"Budapest","name_today":"","pid":"https://www.geonames.org/3054638/budapest.html","key":"Budapest","lat":"47.5","long":"19.08333","pos":"Bae_MF_6-1_2917"},{"name":"Budapest","name_today":"","pid":"https://www.geonames.org/3054638/budapest.html","key":"Budapest","lat":"47.5","long":"19.08333","pos":"Bae_MF_6-1_3610"},{"name":"Budapest","name_today":"","pid":"https://www.geonames.org/3054638/budapest.html","key":"Budapest","lat":"47.5","long":"19.08333","pos":"Bae_MF_6-1_3896"},{"name":"Budapest","name_today":"","pid":"https://www.geonames.org/3054638/budapest.html","key":"Budapest","lat":"47.5","long":"19.08333","pos":"Bae_MF_6-1_4785"},{"name":"Budapest","name_today":"","pid":"https://www.geonames.org/3054638/budapest.html","key":"Budapest","lat":"47.5","long":"19.08333","pos":"Bae_MF_6-1_5114"},{"name":"Budapest","name_today":"","pid":"https://www.geonames.org/3054638/budapest.html","key":"Budapest","lat":"47.5","long":"19.08333","pos":"Bae_MF_6-1_5380"},{"name":"Budapest","name_today":"","pid":"https://www.geonames.org/3054638/budapest.html","key":"Budapest","lat":"47.5","long":"19.08333","pos":"Bae_MF_6-2_3689"},{"name":"Budapest","name_today":"","pid":"https://www.geonames.org/3054638/budapest.html","key":"Budapest","lat":"47.5","long":"19.08333","pos":"Bae_TB_7_10532"},{"name":"Budapest","name_today":"","pid":"https://www.geonames.org/3054638/budapest.html","key":"Budapest","lat":"47.5","long":"19.08333","pos":"Bae_TB_7_11219"},{"name":"Budapest","name_today":"","pid":"https://www.geonames.org/3054638/budapest.html","key":"Budapest","lat":"47.5","long":"19.08333","pos":"Bae_TB_7_11665"},{"name":"Budapest","name_today":"","pid":"https://www.geonames.org/3054638/budapest.html","key":"Budapest","lat":"47.5","long":"19.08333","pos":"Bae_TB_7_13305"},{"name":"Budapest","name_today":"","pid":"https://www.geonames.org/3054638/budapest.html","key":"Budapest","lat":"47.5","long":"19.08333","pos":"Bae_TB_7_1590"},{"name":"Budapest","name_today":"","pid":"https://www.geonames.org/3054638/budapest.html","key":"Budapest","lat":"47.5","long":"19.08333","pos":"Bae_TB_7_6746"},{"name":"Budapest","name_today":"","pid":"https://www.geonames.org/3054638/budapest.html","key":"Budapest","lat":"47.5","long":"19.08333","pos":"Bae_TB_7_6881"},{"name":"Budapest","name_today":"","pid":"https://www.geonames.org/3054638/budapest.html","key":"Budapest","lat":"47.5","long":"19.08333","pos":"Bae_TB_7_6936"},{"name":"Budapest","name_today":"","pid":"https://www.geonames.org/3054638/budapest.html","key":"Budapest","lat":"47.5","long":"19.08333","pos":"Bae_TB_7_6966"},{"name":"Budapest","name_today":"","pid":"https://www.geonames.org/3054638/budapest.html","key":"Budapest","lat":"47.5","long":"19.08333","pos":"Bae_TB_7_6977"},{"name":"Budapest","name_today":"","pid":"https://www.geonames.org/3054638/budapest.html","key":"Budapest","lat":"47.5","long":"19.08333","pos":"Bae_TB_7_8308"},{"name":"Budapest","name_today":"","pid":"https://www.geonames.org/3054638/budapest.html","key":"Budapest","lat":"47.5","long":"19.08333","pos":"Bae_TB_7_8765"},{"name":"Budapest","name_today":"","pid":"https://www.geonames.org/3054638/budapest.html","key":"Budapest","lat":"47.5","long":"19.08333","pos":"Bae_TB_8_3690"},{"name":"Budweis","name_today":"České Budějovice","pid":"https://www.geonames.org/11920790/ceske-budejovice.html","key":"Budweis","lat":"48.98111","long":"14.48113","pos":"Bae_MF_6-2_4881"},{"name":"Budweis","name_today":"České Budějovice","pid":"https://www.geonames.org/11920790/ceske-budejovice.html","key":"Budweis","lat":"48.98111","long":"14.48113","pos":"Bae_MF_6-2_4893"},{"name":"Dalmatien","name_today":"Dalmacija","pid":"https://www.geonames.org/3202210/dalmatia.html","key":"Dalmatien","lat":"43","long":"17","pos":"Bae_MF_6-1_4630"},{"name":"Dalmatien","name_today":"Dalmacija","pid":"https://www.geonames.org/3202210/dalmatia.html","key":"Dalmatien","lat":"43","long":"17","pos":"Bae_MF_6-1_5147"},{"name":"Dalmatien","name_today":"Dalmacija","pid":"https://www.geonames.org/3202210/dalmatia.html","key":"Dalmatien","lat":"43","long":"17","pos":"Bae_TB_7_10228"},{"name":"Dalmatien","name_today":"Dalmacija","pid":"https://www.geonames.org/3202210/dalmatia.html","key":"Dalmatien","lat":"43","long":"17","pos":"Bae_TB_7_11299"},{"name":"Dalmatien","name_today":"Dalmacija","pid":"https://www.geonames.org/3202210/dalmatia.html","key":"Dalmatien","lat":"43","long":"17","pos":"Bae_TB_7_1877"},{"name":"Dalmatien","name_today":"Dalmacija","pid":"https://www.geonames.org/3202210/dalmatia.html","key":"Dalmatien","lat":"43","long":"17","pos":"Bae_TB_7_1897"},{"name":"Dalmatien","name_today":"Dalmacija","pid":"https://www.geonames.org/3202210/dalmatia.html","key":"Dalmatien","lat":"43","long":"17","pos":"Bae_TB_7_1936"},{"name":"Dalmatien","name_today":"Dalmacija","pid":"https://www.geonames.org/3202210/dalmatia.html","key":"Dalmatien","lat":"43","long":"17","pos":"Bae_TB_7_1965"},{"name":"Dalmatien","name_today":"Dalmacija","pid":"https://www.geonames.org/3202210/dalmatia.html","key":"Dalmatien","lat":"43","long":"17","pos":"Bae_TB_7_2001"},{"name":"Deutsches Reich","name_today":"Deutschland","pid":"https://d-nb.info/gnd/7509421-6","key":"Deutschland","lat":"","long":"","pos":"Bae_MF_6-1_624"},{"name":"Deutsches Reich","name_today":"Deutschland","pid":"https://d-nb.info/gnd/7509421-6","key":"Deutschland","lat":"","long":"","pos":"Bae_MF_6-1_1329"},{"name":"Deutsches Reich","name_today":"Deutschland","pid":"https://d-nb.info/gnd/7509421-6","key":"Deutschland","lat":"","long":"","pos":"Bae_MF_6-1_1642"},{"name":"Deutsches Reich","name_today":"Deutschland","pid":"https://d-nb.info/gnd/7509421-6","key":"Deutschland","lat":"","long":"","pos":"Bae_MF_6-1_1682"},{"name":"Deutsches Reich","name_today":"Deutschland","pid":"https://d-nb.info/gnd/7509421-6","key":"Deutschland","lat":"","long":"","pos":"Bae_MF_6-1_1727"},{"name":"Deutsches Reich","name_today":"Deutschland","pid":"https://d-nb.info/gnd/7509421-6","key":"Deutschland","lat":"","long":"","pos":"Bae_MF_6-1_1799"},{"name":"Deutsches Reich","name_today":"Deutschland","pid":"https://d-nb.info/gnd/7509421-6","key":"Deutschland","lat":"","long":"","pos":"Bae_MF_6-1_1880"},{"name":"Deutsches Reich","name_today":"Deutschland","pid":"https://d-nb.info/gnd/7509421-6","key":"Deutschland","lat":"","long":"","pos":"Bae_MF_6-1_1901"},{"name":"Deutsches Reich","name_today":"Deutschland","pid":"https://d-nb.info/gnd/7509421-6","key":"Deutschland","lat":"","long":"","pos":"Bae_MF_6-1_1941"},{"name":"Deutsches Reich","name_today":"Deutschland","pid":"https://d-nb.info/gnd/7509421-6","key":"Deutschland","lat":"","long":"","pos":"Bae_MF_6-1_1960"},{"name":"Deutsches Reich","name_today":"Deutschland","pid":"https://d-nb.info/gnd/7509421-6","key":"Deutschland","lat":"","long":"","pos":"Bae_MF_6-1_1991"},{"name":"Deutsches Reich","name_today":"Deutschland","pid":"https://d-nb.info/gnd/7509421-6","key":"Deutschland","lat":"","long":"","pos":"Bae_MF_6-1_1995"},{"name":"Deutsches Reich","name_today":"Deutschland","pid":"https://d-nb.info/gnd/7509421-6","key":"Deutschland","lat":"","long":"","pos":"Bae_MF_6-1_2100"},{"name":"Deutsches Reich","name_today":"Deutschland","pid":"https://d-nb.info/gnd/7509421-6","key":"Deutschland","lat":"","long":"","pos":"Bae_MF_6-1_2302"},{"name":"Deutsches Reich","name_today":"Deutschland","pid":"https://d-nb.info/gnd/7509421-6","key":"Deutschland","lat":"","long":"","pos":"Bae_MF_6-1_3501"},{"name":"Deutsches Reich","name_today":"Deutschland","pid":"https://d-nb.info/gnd/7509421-6","key":"Deutschland","lat":"","long":"","pos":"Bae_MF_6-1_5004"},{"name":"Deutsches Reich","name_today":"Deutschland","pid":"https://d-nb.info/gnd/7509421-6","key":"Deutschland","lat":"","long":"","pos":"Bae_MF_6-1_5394"},{"name":"Deutsches Reich","name_today":"Deutschland","pid":"https://d-nb.info/gnd/7509421-6","key":"Deutschland","lat":"","long":"","pos":"Bae_TB_7_10969"},{"name":"Deutsches Reich","name_today":"Deutschland","pid":"https://d-nb.info/gnd/7509421-6","key":"Deutschland","lat":"","long":"","pos":"Bae_TB_7_380"},{"name":"Deutsches Reich","name_today":"Deutschland","pid":"https://d-nb.info/gnd/7509421-6","key":"Deutschland","lat":"","long":"","pos":"Bae_TB_7_388"},{"name":"Deutsches Reich","name_today":"Deutschland","pid":"https://d-nb.info/gnd/7509421-6","key":"Deutschland","lat":"","long":"","pos":"Bae_TB_7_555"},{"name":"Deutsches Reich","name_today":"Deutschland","pid":"https://d-nb.info/gnd/7509421-6","key":"Deutschland","lat":"","long":"","pos":"Bae_TB_7_4808"},{"name":"Deutsches Reich","name_today":"Deutschland","pid":"https://d-nb.info/gnd/7509421-6","key":"Deutschland","lat":"","long":"","pos":"Bae_TB_7_7937"},{"name":"Deutsches Reich","name_today":"Deutschland","pid":"","key":"Deutschland","lat":"","long":"","pos":"Bae_MF_6-2_1943"},{"name":"Eger","name_today":"Cheb","pid":"https://www.geonames.org/3077835/cheb.html","key":"Eger","lat":"50.07122","long":"12.37963","pos":"Bae_MF_6-2_6248"},{"name":"Eger","name_today":"Cheb","pid":"https://www.geonames.org/3077835/cheb.html","key":"Eger","lat":"50.07122","long":"12.37963","pos":"Bae_MF_6-2_6258"},{"name":"Einsiedl","name_today":"Mnichov","pid":"https://www.geonames.org/11921999/mnichov.html","key":"Einsiedl","lat":"50.02222","long":"12.76266","pos":"Bae_MF_6-2_6188"},{"name":"Eipel","name_today":"Úpice","pid":"https://www.geonames.org/11926030/mnichov.html","key":"Eipel","lat":"49.30709","long":"13.82406","pos":"Bae_MF_6-2_2511"},{"name":"Eipel","name_today":"Úpice","pid":"https://www.geonames.org/11926030/mnichov.html","key":"Eipel","lat":"49.30709","long":"13.82406","pos":"Bae_TB_8_1027"},{"name":"Eipel","name_today":"Úpice","pid":"https://www.geonames.org/11926030/mnichov.html","key":"Eipel","lat":"49.30709","long":"13.82406","pos":"Bae_TB_8_1035"},{"name":"England (Großbritannien)","name_today":"","pid":"https://www.geonames.org/2635167/united-kingdom-of-great-britain-and-northern-ireland.html","key":"England","lat":"54.75844","long":"-2.69531","pos":"Bae_MF_6-1_1693"},{"name":"England (Großbritannien)","name_today":"","pid":"https://www.geonames.org/2635167/united-kingdom-of-great-britain-and-northern-ireland.html","key":"England","lat":"54.75844","long":"-2.69531","pos":"Bae_MF_6-1_2777"},{"name":"England (Großbritannien)","name_today":"","pid":"https://www.geonames.org/2635167/united-kingdom-of-great-britain-and-northern-ireland.html","key":"England","lat":"54.75844","long":"-2.69531","pos":"Bae_MF_6-1_2801"},{"name":"England (Großbritannien)","name_today":"","pid":"https://www.geonames.org/2635167/united-kingdom-of-great-britain-and-northern-ireland.html","key":"England","lat":"54.75844","long":"-2.69531","pos":"Bae_MF_6-1_2805"},{"name":"England (Großbritannien)","name_today":"","pid":"https://www.geonames.org/2635167/united-kingdom-of-great-britain-and-northern-ireland.html","key":"England","lat":"54.75844","long":"-2.69531","pos":"Bae_MF_6-1_3497"},{"name":"England (Großbritannien)","name_today":"","pid":"https://www.geonames.org/2635167/united-kingdom-of-great-britain-and-northern-ireland.html","key":"England","lat":"54.75844","long":"-2.69531","pos":"Bae_MF_6-2_243"},{"name":"England (Großbritannien)","name_today":"","pid":"https://www.geonames.org/2635167/united-kingdom-of-great-britain-and-northern-ireland.html","key":"England","lat":"54.75844","long":"-2.69531","pos":"Bae_TB_7_6640"},{"name":"England (Großbritannien)","name_today":"","pid":"https://www.geonames.org/2635167/united-kingdom-of-great-britain-and-northern-ireland.html","key":"England","lat":"54.75844","long":"-2.69531","pos":"Bae_TB_7_6656"},{"name":"England (Großbritannien)","name_today":"","pid":"https://www.geonames.org/2635167/united-kingdom-of-great-britain-and-northern-ireland.html","key":"England","lat":"54.75844","long":"-2.69531","pos":"Bae_TB_7_6660"},{"name":"England (Großbritannien)","name_today":"","pid":"https://www.geonames.org/2635167/united-kingdom-of-great-britain-and-northern-ireland.html","key":"England","lat":"54.75844","long":"-2.69531","pos":"Bae_TB_7_7918"},{"name":"England (Großbritannien)","name_today":"","pid":"https://www.geonames.org/2635167/united-kingdom-of-great-britain-and-northern-ireland.html","key":"England","lat":"54.75844","long":"-2.69531","pos":"Bae_TB_8_5620"},{"name":"Fiume","name_today":"Rijeka","pid":"https://www.geonames.org/3191647/grad-rijeka.html","key":"Fiume","lat":"45.32693","long":"14.43758","pos":"Bae_MF_6-1_5118"},{"name":"Fiume","name_today":"Rijeka","pid":"https://www.geonames.org/3191647/grad-rijeka.html","key":"Fiume","lat":"45.32693","long":"14.43758","pos":"Bae_TB_7_11223"},{"name":"Floridsdorf","name_today":"Wien Floridsdorf","pid":"https://www.geonames.org/2779467/gemeindebezirk-floridsdorf.html","key":"Floridsdorf","lat":"48.25","long":"16.39972","pos":"Bae_TB_7_2502"},{"name":"Galizien","name_today":"","pid":"https://www.geonames.org/562153/galicia.html","key":"Galizien","lat":"49.5","long":"23","pos":"Bae_MF_6-2_2632"},{"name":"Galizien","name_today":"","pid":"https://www.geonames.org/562153/galicia.html","key":"Galizien","lat":"49.5","long":"23","pos":"Bae_MF_6-2_2721"},{"name":"Galizien","name_today":"","pid":"https://www.geonames.org/562153/galicia.html","key":"Galizien","lat":"49.5","long":"23","pos":"Bae_TB_8_798"},{"name":"Galizien","name_today":"","pid":"https://www.geonames.org/562153/galicia.html","key":"Galizien","lat":"49.5","long":"23","pos":"Bae_TB_8_1502"},{"name":"Galizien","name_today":"","pid":"https://www.geonames.org/562153/galicia.html","key":"Galizien","lat":"49.5","long":"23","pos":"Bae_TB_8_1619"},{"name":"Görz","name_today":"Gorizia/Gorica","pid":"https://www.geonames.org/3175986/gorizia.html","key":"Goerz","lat":"45.94088","long":"13.62167","pos":"Bae_TB_7_2243"},{"name":"Graz","name_today":"","pid":"https://www.geonames.org/2778058/graz-stadt.html","key":"Graz","lat":"47.06667","long":"15.43333","pos":"Bae_MF_6-2_2435"},{"name":"Graz","name_today":"","pid":"https://www.geonames.org/2778058/graz-stadt.html","key":"Graz","lat":"47.06667","long":"15.43333","pos":"Bae_TB_7_1860"},{"name":"Graz","name_today":"","pid":"https://www.geonames.org/2778058/graz-stadt.html","key":"Graz","lat":"47.06667","long":"15.43333","pos":"Bae_TB_8_690"},{"name":"Graz","name_today":"","pid":"https://www.geonames.org/2778058/graz-stadt.html","key":"Graz","lat":"47.06667","long":"15.43333","pos":"Bae_TB_8_1177"},{"name":"Helgoland","name_today":"","pid":"https://www.geonames.org/2906947/helgoland.html","key":"Helgoland","lat":"54.18213","long":"7.88458","pos":"Bae_MF_6-1_1705"},{"name":"Herzegowina (Bosnien-Herzegowina)","name_today":"","pid":"https://www.geonames.org/3277605/bosnia-and-herzegovina.html","key":"Herzegowina","lat":"44.25","long":"17.83333","pos":"Bae_MF_6-1_5143"},{"name":"","name_today":"","pid":"","key":"Inneroesterreich","lat":"","long":"","pos":"Bae_TB_7_1924"},{"name":"Innsbruck","name_today":"","pid":"https://www.geonames.org/2775220/innsbruck.html","key":"Innsbruck","lat":"47.26266","long":"11.39454","pos":"Bae_TB_7_2114"},{"name":"Innsbruck","name_today":"","pid":"https://www.geonames.org/2775220/innsbruck.html","key":"Innsbruck","lat":"47.26266","long":"11.39454","pos":"Bae_TB_7_2135"},{"name":"Innsbruck","name_today":"","pid":"https://www.geonames.org/2775220/innsbruck.html","key":"Innsbruck","lat":"47.26266","long":"11.39454","pos":"Bae_TB_7_2139"},{"name":"Innsbruck","name_today":"","pid":"https://www.geonames.org/2775220/innsbruck.html","key":"Innsbruck","lat":"47.26266","long":"11.39454","pos":"Bae_TB_7_2160"},{"name":"Innsbruck","name_today":"","pid":"https://www.geonames.org/2775220/innsbruck.html","key":"Innsbruck","lat":"47.26266","long":"11.39454","pos":"Bae_TB_7_2200"},{"name":"Innsbruck","name_today":"","pid":"https://www.geonames.org/2775220/innsbruck.html","key":"Innsbruck","lat":"47.26266","long":"11.39454","pos":"Bae_TB_7_2266"},{"name":"Innsbruck","name_today":"","pid":"https://www.geonames.org/2775220/innsbruck.html","key":"Innsbruck","lat":"47.26266","long":"11.39454","pos":"Bae_TB_7_2286"},{"name":"Innsbruck","name_today":"","pid":"https://www.geonames.org/2775220/innsbruck.html","key":"Innsbruck","lat":"47.26266","long":"11.39454","pos":"Bae_TB_7_2449"},{"name":"Innsbruck","name_today":"","pid":"https://www.geonames.org/2775220/innsbruck.html","key":"Innsbruck","lat":"47.26266","long":"11.39454","pos":"Bae_TB_7_2648"},{"name":"Innsbruck","name_today":"","pid":"https://www.geonames.org/2775220/innsbruck.html","key":"Innsbruck","lat":"47.26266","long":"11.39454","pos":"Bae_TB_7_4289"},{"name":"Istrien","name_today":"","pid":"https://www.geonames.org/3337514/istria.html","key":"Istrien","lat":"45.25","long":"13.91667","pos":"Bae_MF_6-2_5081"},{"name":"Istrien","name_today":"","pid":"https://www.geonames.org/3337514/istria.html","key":"Istrien","lat":"45.25","long":"13.91667","pos":"Bae_TB_8_4447"},{"name":"Italien","name_today":"","pid":"https://www.geonames.org/3175395/italian-republic.html","key":"Italien","lat":"42.83333","long":"12.83333","pos":"Bae_TB_7_9862"},{"name":"Kärnten","name_today":"","pid":"https://www.geonames.org/2774686/kaernten.html","key":"Kaernten","lat":"","long":"","pos":"Bae_MF_6-2_5901"},{"name":"Kärnten","name_today":"","pid":"https://www.geonames.org/2774686/kaernten.html","key":"Kaernten","lat":"","long":"","pos":"Bae_TB_7_1856"},{"name":"Kärnten","name_today":"","pid":"https://www.geonames.org/2774686/kaernten.html","key":"Kaernten","lat":"","long":"","pos":"Bae_TB_7_1916"},{"name":"Kärnten","name_today":"","pid":"https://www.geonames.org/2774686/kaernten.html","key":"Kaernten","lat":"","long":"","pos":"Bae_TB_7_1954"},{"name":"Karlsbad","name_today":"Karlovy Vary","pid":"https://www.geonames.org/3073803/karlovy-vary.html","key":"Karlsbad","lat":"50.23271","long":"12.87117","pos":"Bae_MF_6-1_1598"},{"name":"Karlsbad","name_today":"Karlovy Vary","pid":"https://www.geonames.org/3073803/karlovy-vary.html","key":"Karlsbad","lat":"50.23271","long":"12.87117","pos":"Bae_MF_6-1_2351"},{"name":"Karlsbad","name_today":"Karlovy Vary","pid":"https://www.geonames.org/3073803/karlovy-vary.html","key":"Karlsbad","lat":"50.23271","long":"12.87117","pos":"Bae_MF_6-1_2403"},{"name":"Karlsbad","name_today":"Karlovy Vary","pid":"https://www.geonames.org/3073803/karlovy-vary.html","key":"Karlsbad","lat":"50.23271","long":"12.87117","pos":"Bae_MF_6-1_2740"},{"name":"Karlsbad","name_today":"Karlovy Vary","pid":"https://www.geonames.org/3073803/karlovy-vary.html","key":"Karlsbad","lat":"50.23271","long":"12.87117","pos":"Bae_MF_6-2_6006"},{"name":"Karlsbad","name_today":"Karlovy Vary","pid":"https://www.geonames.org/3073803/karlovy-vary.html","key":"Karlsbad","lat":"50.23271","long":"12.87117","pos":"Bae_TB_7_5348"},{"name":"Karlsbad","name_today":"Karlovy Vary","pid":"https://www.geonames.org/3073803/karlovy-vary.html","key":"Karlsbad","lat":"50.23271","long":"12.87117","pos":"Bae_TB_7_5918"},{"name":"Karlsbad","name_today":"Karlovy Vary","pid":"https://www.geonames.org/3073803/karlovy-vary.html","key":"Karlsbad","lat":"50.23271","long":"12.87117","pos":"Bae_TB_7_6564"},{"name":"Karlsbad","name_today":"Karlovy Vary","pid":"https://www.geonames.org/3073803/karlovy-vary.html","key":"Karlsbad","lat":"50.23271","long":"12.87117","pos":"Bae_TB_7_6601"},{"name":"Karlsbad","name_today":"Karlovy Vary","pid":"https://www.geonames.org/3073803/karlovy-vary.html","key":"Karlsbad","lat":"50.23271","long":"12.87117","pos":"Bae_TB_7_6859"},{"name":"Knin","name_today":"","pid":"https://www.geonames.org/3197986/knin.html","key":"Knin","lat":"44.04063","long":"16.19662","pos":"Bae_MF_6-1_4550"},{"name":"Knin","name_today":"","pid":"https://www.geonames.org/3197986/knin.html","key":"Knin","lat":"44.04063","long":"16.19662","pos":"Bae_TB_7_10095"},{"name":"Königsberg","name_today":"Kynšperk nad Ohří","pid":"https://www.geonames.org/11921844/kynsperk-nad-ohri.html","key":"Koenigsberg","lat":"50.11601","long":"12.53794","pos":"Bae_TB_7_1760"},{"name":"Königswart","name_today":"Lázně Kynžvart","pid":"https://www.geonames.org/3072265/lazne-kynzvart.html","key":"Koenigswart","lat":"50.01058","long":"12.62474","pos":"Bae_MF_6-2_6196"},{"name":"Krain","name_today":"Kranjska","pid":"https://www.geonames.org/3197905/kokra.html","key":"Krain","lat":"46.23792","long":"14.35707","pos":"Bae_MF_6-2_5040"},{"name":"Krain","name_today":"Kranjska","pid":"https://www.geonames.org/3197905/kokra.html","key":"Krain","lat":"46.23792","long":"14.35707","pos":"Bae_TB_7_12861"},{"name":"Krain","name_today":"Kranjska","pid":"https://www.geonames.org/3197905/kokra.html","key":"Krain","lat":"46.23792","long":"14.35707","pos":"Bae_TB_7_1852"},{"name":"Krain","name_today":"Kranjska","pid":"https://www.geonames.org/3197905/kokra.html","key":"Krain","lat":"46.23792","long":"14.35707","pos":"Bae_TB_7_1912"},{"name":"Krain","name_today":"Kranjska","pid":"https://www.geonames.org/3197905/kokra.html","key":"Krain","lat":"46.23792","long":"14.35707","pos":"Bae_TB_7_1950"},{"name":"Krain","name_today":"Kranjska","pid":"https://www.geonames.org/3197905/kokra.html","key":"Krain","lat":"46.23792","long":"14.35707","pos":"Bae_TB_8_4399"},{"name":"Kroatien","name_today":"Hrvatska","pid":"https://www.geonames.org/3202326/republic-of-croatia.html","key":"Kroatien","lat":"45.16667","long":"15.5","pos":"Bae_MF_6-1_4542"},{"name":"Kroatien","name_today":"Hrvatska","pid":"https://www.geonames.org/3202326/republic-of-croatia.html","key":"Kroatien","lat":"45.16667","long":"15.5","pos":"Bae_MF_6-1_4622"},{"name":"Kroatien","name_today":"Hrvatska","pid":"https://www.geonames.org/3202326/republic-of-croatia.html","key":"Kroatien","lat":"45.16667","long":"15.5","pos":"Bae_TB_7_10213"},{"name":"Kroatien","name_today":"Hrvatska","pid":"https://www.geonames.org/3202326/republic-of-croatia.html","key":"Kroatien","lat":"45.16667","long":"15.5","pos":"Bae_TB_7_10499"},{"name":"Kroatien","name_today":"Hrvatska","pid":"https://www.geonames.org/3202326/republic-of-croatia.html","key":"Kroatien","lat":"45.16667","long":"15.5","pos":"Bae_TB_7_10503"},{"name":"Kroatien","name_today":"Hrvatska","pid":"https://www.geonames.org/3202326/republic-of-croatia.html","key":"Kroatien","lat":"45.16667","long":"15.5","pos":"Bae_TB_7_10078"},{"name":"Küstenland","name_today":"","pid":"https://d-nb.info/gnd/4398117-3","key":"Kuestenland","lat":"","long":"","pos":"Bae_TB_7_12865"},{"name":"Küstenland","name_today":"","pid":"https://d-nb.info/gnd/4398117-3","key":"Kuestenland","lat":"","long":"","pos":"Bae_TB_7_1881"},{"name":"Küstenland","name_today":"","pid":"https://d-nb.info/gnd/4398117-3","key":"Kuestenland","lat":"","long":"","pos":"Bae_TB_7_1901"},{"name":"Küstenland","name_today":"","pid":"https://d-nb.info/gnd/4398117-3","key":"Kuestenland","lat":"","long":"","pos":"Bae_TB_7_1940"},{"name":"Küstenland","name_today":"","pid":"https://d-nb.info/gnd/4398117-3","key":"Kuestenland","lat":"","long":"","pos":"Bae_TB_7_1969"},{"name":"Laibach","name_today":"Ljublijana","pid":"https://www.geonames.org/3239318/mestna-obcina-ljubljana.html","key":"Laibach","lat":"46.05918","long":"14.50916","pos":"Bae_MF_6-1_4493"},{"name":"Laibach","name_today":"Ljublijana","pid":"https://www.geonames.org/3239318/mestna-obcina-ljubljana.html","key":"Laibach","lat":"46.05918","long":"14.50916","pos":"Bae_TB_7_10003"},{"name":"Lemberg","name_today":"Lwiw, Lwów","pid":"https://www.geonames.org/702550/lviv.html","key":"Lemberg","lat":"49.83826","long":"24.02324","pos":"Bae_MF_6-2_4739"},{"name":"Lemberg","name_today":"Lwiw, Lwów","pid":"https://www.geonames.org/702550/lviv.html","key":"Lemberg","lat":"49.83826","long":"24.02324","pos":"Bae_MF_6-2_4777"},{"name":"Liverpool","name_today":"","pid":"https://www.geonames.org/3333167/liverpool.html","key":"Liverpool","lat":"53.41667","long":"-2.91667","pos":"Bae_MF_6-1_4870"},{"name":"Liverpool","name_today":"","pid":"https://www.geonames.org/3333167/liverpool.html","key":"Liverpool","lat":"53.41667","long":"-2.91667","pos":"Bae_TB_7_10649"},{"name":"Lünz","name_today":"Mlynce","pid":"https://www.geonames.org/3070490/mlynce.html","key":"Luenz","lat":"50.1604","long":"13.31646","pos":"Bae_MF_6-1_1623"},{"name":"Lünz","name_today":"Mlynce","pid":"https://www.geonames.org/3070490/mlynce.html","key":"Luenz","lat":"50.1604","long":"13.31646","pos":"Bae_MF_6-1_2325"},{"name":"Lünz","name_today":"Mlynce","pid":"https://www.geonames.org/3070490/mlynce.html","key":"Luenz","lat":"50.1604","long":"13.31646","pos":"Bae_MF_6-2_5825"},{"name":"Lünz","name_today":"Mlynce","pid":"https://www.geonames.org/3070490/mlynce.html","key":"Luenz","lat":"50.1604","long":"13.31646","pos":"Bae_TB_7_5385"},{"name":"Lünz","name_today":"Mlynce","pid":"https://www.geonames.org/3070490/mlynce.html","key":"Luenz","lat":"50.1604","long":"13.31646","pos":"Bae_TB_8_2690"},{"name":"Lünz","name_today":"Mlynce","pid":"https://www.geonames.org/3070490/mlynce.html","key":"Luenz","lat":"50.1604","long":"13.31646","pos":"Bae_TB_8_2703"},{"name":"Lünz","name_today":"Mlynce","pid":"https://www.geonames.org/3070490/mlynce.html","key":"Luenz","lat":"50.1604","long":"13.31646","pos":"Bae_TB_8_3247"},{"name":"Lünz","name_today":"Mlynce","pid":"https://www.geonames.org/3070490/mlynce.html","key":"Luenz","lat":"50.1604","long":"13.31646","pos":"Bae_TB_8_3371"},{"name":"Lünz","name_today":"Mlynce","pid":"https://www.geonames.org/3070490/mlynce.html","key":"Luenz","lat":"50.1604","long":"13.31646","pos":"Bae_TB_8_3504"},{"name":"Lünz","name_today":"Mlynce","pid":"https://www.geonames.org/3070490/mlynce.html","key":"Luenz","lat":"50.1604","long":"13.31646","pos":"Bae_TB_8_3807"},{"name":"Lünz","name_today":"Mlynce","pid":"https://www.geonames.org/3070490/mlynce.html","key":"Luenz","lat":"50.1604","long":"13.31646","pos":"Bae_TB_8_5266"},{"name":"Mähren","name_today":"Morava","pid":"https://www.geonames.org/3070359/moravia.html","key":"Maehren","lat":"49.5","long":"17","pos":"Bae_MF_6-2_2527"},{"name":"Mähren","name_today":"Morava","pid":"https://www.geonames.org/3070359/moravia.html","key":"Maehren","lat":"49.5","long":"17","pos":"Bae_MF_6-2_6144"},{"name":"Mähren","name_today":"Morava","pid":"https://www.geonames.org/3070359/moravia.html","key":"Maehren","lat":"49.5","long":"17","pos":"Bae_TB_7_12847"},{"name":"Mähren","name_today":"Morava","pid":"https://www.geonames.org/3070359/moravia.html","key":"Maehren","lat":"49.5","long":"17","pos":"Bae_TB_7_12873"},{"name":"Mähren","name_today":"Morava","pid":"https://www.geonames.org/3070359/moravia.html","key":"Maehren","lat":"49.5","long":"17","pos":"Bae_TB_7_3614"},{"name":"Mähren","name_today":"Morava","pid":"https://www.geonames.org/3070359/moravia.html","key":"Maehren","lat":"49.5","long":"17","pos":"Bae_TB_8_1073"},{"name":"Marienbad","name_today":"Mariánské Lázně","pid":"https://www.geonames.org/3071024/marianske-lazne.html","key":"Marienbad","lat":"49.96459","long":"12.70118","pos":"Bae_MF_6-2_5847"},{"name":"Marienbad","name_today":"Mariánské Lázně","pid":"https://www.geonames.org/3071024/marianske-lazne.html","key":"Marienbad","lat":"49.96459","long":"12.70118","pos":"Bae_MF_6-2_6029"},{"name":"Marienbad","name_today":"Mariánské Lázně","pid":"https://www.geonames.org/3071024/marianske-lazne.html","key":"Marienbad","lat":"49.96459","long":"12.70118","pos":"Bae_MF_6-2_6061"},{"name":"Marienbad","name_today":"Mariánské Lázně","pid":"https://www.geonames.org/3071024/marianske-lazne.html","key":"Marienbad","lat":"49.96459","long":"12.70118","pos":"Bae_MF_6-2_6175"},{"name":"Marienbad","name_today":"Mariánské Lázně","pid":"https://www.geonames.org/3071024/marianske-lazne.html","key":"Marienbad","lat":"49.96459","long":"12.70118","pos":"Bae_MF_6-2_6200"},{"name":"Marienbad","name_today":"Mariánské Lázně","pid":"https://www.geonames.org/3071024/marianske-lazne.html","key":"Marienbad","lat":"49.96459","long":"12.70118","pos":"Bae_MF_6-2_6232"},{"name":"Marienbad","name_today":"Mariánské Lázně","pid":"https://www.geonames.org/3071024/marianske-lazne.html","key":"Marienbad","lat":"49.96459","long":"12.70118","pos":"Bae_MF_6-2_6244"},{"name":"Marienbad","name_today":"Mariánské Lázně","pid":"https://www.geonames.org/3071024/marianske-lazne.html","key":"Marienbad","lat":"49.96459","long":"12.70118","pos":"Bae_MF_6-2_6301"},{"name":"Maximir","name_today":"Maksimir","pid":"https://www.geonames.org/3195878/maksimir.html","key":"Maximir","lat":"","long":"","pos":"Bae_TB_7_10442"},{"name":"Meran","name_today":"Merano","pid":"https://www.geonames.org/3173577/merano.html","key":"Meran","lat":"46.66817","long":"11.15953","pos":"Bae_TB_8_916"},{"name":"Meran","name_today":"Merano","pid":"https://www.geonames.org/3173577/merano.html","key":"Meran","lat":"46.66817","long":"11.15953","pos":"Bae_TB_8_936"},{"name":"Misdroy","name_today":"Międzyzdroje","pid":"","key":"Misdroy","lat":"","long":"","pos":"Bae_MF_6-1_2720"},{"name":"Misdroy","name_today":"Międzyzdroje","pid":"","key":"Misdroy","lat":"","long":"","pos":"Bae_TB_7_6510"},{"name":"München","name_today":"","pid":"https://www.geonames.org/6559171/muenchen-landeshauptstadt.html","key":"Muenchen","lat":"48.13452","long":"11.571","pos":"Bae_MF_6-1_1750"},{"name":"München","name_today":"","pid":"https://www.geonames.org/6559171/muenchen-landeshauptstadt.html","key":"Muenchen","lat":"48.13452","long":"11.571","pos":"Bae_MF_6-1_1767"},{"name":"München","name_today":"","pid":"https://www.geonames.org/6559171/muenchen-landeshauptstadt.html","key":"Muenchen","lat":"48.13452","long":"11.571","pos":"Bae_MF_6-1_1771"},{"name":"München","name_today":"","pid":"https://www.geonames.org/6559171/muenchen-landeshauptstadt.html","key":"Muenchen","lat":"48.13452","long":"11.571","pos":"Bae_MF_6-1_1791"},{"name":"München","name_today":"","pid":"https://www.geonames.org/6559171/muenchen-landeshauptstadt.html","key":"Muenchen","lat":"48.13452","long":"11.571","pos":"Bae_MF_6-1_1795"},{"name":"München","name_today":"","pid":"https://www.geonames.org/6559171/muenchen-landeshauptstadt.html","key":"Muenchen","lat":"48.13452","long":"11.571","pos":"Bae_MF_6-1_1817"},{"name":"München","name_today":"","pid":"https://www.geonames.org/6559171/muenchen-landeshauptstadt.html","key":"Muenchen","lat":"48.13452","long":"11.571","pos":"Bae_MF_6-2_945"},{"name":"München","name_today":"","pid":"https://www.geonames.org/6559171/muenchen-landeshauptstadt.html","key":"Muenchen","lat":"48.13452","long":"11.571","pos":"Bae_MF_6-2_5298"},{"name":"München","name_today":"","pid":"https://www.geonames.org/6559171/muenchen-landeshauptstadt.html","key":"Muenchen","lat":"48.13452","long":"11.571","pos":"Bae_MF_6-2_5302"},{"name":"München","name_today":"","pid":"https://www.geonames.org/6559171/muenchen-landeshauptstadt.html","key":"Muenchen","lat":"48.13452","long":"11.571","pos":"Bae_TB_8_4800"},{"name":"München","name_today":"","pid":"https://www.geonames.org/6559171/muenchen-landeshauptstadt.html","key":"Muenchen","lat":"48.13452","long":"11.571","pos":"Bae_TB_8_5247"},{"name":"Neupest (IV. Budapester Bezirk)","name_today":"Újpest","pid":"","key":"Neupest","lat":"","long":"","pos":"Bae_MF_6-1_4316"},{"name":"Neupest (IV. Budapester Bezirk)","name_today":"Újpest","pid":"","key":"Neupest","lat":"","long":"","pos":"Bae_TB_7_9720"},{"name":"New York City","name_today":"","pid":"https://www.geonames.org/5128638/new-york.html","key":"NewYork","lat":"43.00035","long":"-75.4999","pos":"Bae_MF_6-1_4866"},{"name":"New York City","name_today":"","pid":"https://www.geonames.org/5128638/new-york.html","key":"NewYork","lat":"43.00035","long":"-75.4999","pos":"Bae_TB_7_10645"},{"name":"","name_today":"","pid":"https://www.geonames.org/6557460/norderney.html","key":"Noderney","lat":"","long":"","pos":"Bae_MF_6-1_1697"},{"name":"Novi Grad","name_today":"","pid":"","key":"NoviGrad","lat":"","long":"","pos":"Bae_MF_6-1_4546"},{"name":"Novi Grad","name_today":"","pid":"","key":"NoviGrad","lat":"","long":"","pos":"Bae_TB_7_10091"},{"name":"Nymphenburg","name_today":"","pid":"https://www.geonames.org/2861525/nymphenburg.html","key":"Nymphenburg","lat":"48.15853","long":"11.49857","pos":"Bae_MF_6-1_1775"},{"name":"Nymphenburg","name_today":"","pid":"https://www.geonames.org/2861525/nymphenburg.html","key":"Nymphenburg","lat":"48.15853","long":"11.49857","pos":"Bae_MF_6-1_1825"},{"name":"Österreich","name_today":"","pid":"https://www.geonames.org/2782113/republic-of-austria.html","key":"Oesterreich","lat":"47.33333","long":"13.33333","pos":"Bae_MF_6-1_563"},{"name":"Österreich","name_today":"","pid":"https://www.geonames.org/2782113/republic-of-austria.html","key":"Oesterreich","lat":"47.33333","long":"13.33333","pos":"Bae_MF_6-1_706"},{"name":"Österreich","name_today":"","pid":"https://www.geonames.org/2782113/republic-of-austria.html","key":"Oesterreich","lat":"47.33333","long":"13.33333","pos":"Bae_MF_6-1_757"},{"name":"Österreich","name_today":"","pid":"https://www.geonames.org/2782113/republic-of-austria.html","key":"Oesterreich","lat":"47.33333","long":"13.33333","pos":"Bae_MF_6-1_1018"},{"name":"Österreich","name_today":"","pid":"https://www.geonames.org/2782113/republic-of-austria.html","key":"Oesterreich","lat":"47.33333","long":"13.33333","pos":"Bae_MF_6-1_1040"},{"name":"Österreich","name_today":"","pid":"https://www.geonames.org/2782113/republic-of-austria.html","key":"Oesterreich","lat":"47.33333","long":"13.33333","pos":"Bae_MF_6-1_1857"},{"name":"Österreich","name_today":"","pid":"https://www.geonames.org/2782113/republic-of-austria.html","key":"Oesterreich","lat":"47.33333","long":"13.33333","pos":"Bae_MF_6-1_1905"},{"name":"Österreich","name_today":"","pid":"https://www.geonames.org/2782113/republic-of-austria.html","key":"Oesterreich","lat":"47.33333","long":"13.33333","pos":"Bae_MF_6-1_2016"},{"name":"Österreich","name_today":"","pid":"https://www.geonames.org/2782113/republic-of-austria.html","key":"Oesterreich","lat":"47.33333","long":"13.33333","pos":"Bae_MF_6-1_2024"},{"name":"Österreich","name_today":"","pid":"https://www.geonames.org/2782113/republic-of-austria.html","key":"Oesterreich","lat":"47.33333","long":"13.33333","pos":"Bae_MF_6-1_2117"},{"name":"Österreich","name_today":"","pid":"https://www.geonames.org/2782113/republic-of-austria.html","key":"Oesterreich","lat":"47.33333","long":"13.33333","pos":"Bae_MF_6-1_2125"},{"name":"Österreich","name_today":"","pid":"https://www.geonames.org/2782113/republic-of-austria.html","key":"Oesterreich","lat":"47.33333","long":"13.33333","pos":"Bae_MF_6-1_2142"},{"name":"Österreich","name_today":"","pid":"https://www.geonames.org/2782113/republic-of-austria.html","key":"Oesterreich","lat":"47.33333","long":"13.33333","pos":"Bae_MF_6-1_2469"},{"name":"Österreich","name_today":"","pid":"https://www.geonames.org/2782113/republic-of-austria.html","key":"Oesterreich","lat":"47.33333","long":"13.33333","pos":"Bae_MF_6-1_2634"},{"name":"Österreich","name_today":"","pid":"https://www.geonames.org/2782113/republic-of-austria.html","key":"Oesterreich","lat":"47.33333","long":"13.33333","pos":"Bae_MF_6-1_3078"},{"name":"Österreich","name_today":"","pid":"https://www.geonames.org/2782113/republic-of-austria.html","key":"Oesterreich","lat":"47.33333","long":"13.33333","pos":"Bae_MF_6-1_3082"},{"name":"Österreich","name_today":"","pid":"https://www.geonames.org/2782113/republic-of-austria.html","key":"Oesterreich","lat":"47.33333","long":"13.33333","pos":"Bae_MF_6-1_3401"},{"name":"Österreich","name_today":"","pid":"https://www.geonames.org/2782113/republic-of-austria.html","key":"Oesterreich","lat":"47.33333","long":"13.33333","pos":"Bae_MF_6-1_3407"},{"name":"Österreich","name_today":"","pid":"https://www.geonames.org/2782113/republic-of-austria.html","key":"Oesterreich","lat":"47.33333","long":"13.33333","pos":"Bae_MF_6-1_3661"},{"name":"Österreich","name_today":"","pid":"https://www.geonames.org/2782113/republic-of-austria.html","key":"Oesterreich","lat":"47.33333","long":"13.33333","pos":"Bae_MF_6-1_3777"},{"name":"Österreich","name_today":"","pid":"https://www.geonames.org/2782113/republic-of-austria.html","key":"Oesterreich","lat":"47.33333","long":"13.33333","pos":"Bae_MF_6-1_3870"},{"name":"Österreich","name_today":"","pid":"https://www.geonames.org/2782113/republic-of-austria.html","key":"Oesterreich","lat":"47.33333","long":"13.33333","pos":"Bae_MF_6-1_3931"},{"name":"Österreich","name_today":"","pid":"https://www.geonames.org/2782113/republic-of-austria.html","key":"Oesterreich","lat":"47.33333","long":"13.33333","pos":"Bae_MF_6-1_4122"},{"name":"Österreich","name_today":"","pid":"https://www.geonames.org/2782113/republic-of-austria.html","key":"Oesterreich","lat":"47.33333","long":"13.33333","pos":"Bae_MF_6-1_4128"},{"name":"Österreich","name_today":"","pid":"https://www.geonames.org/2782113/republic-of-austria.html","key":"Oesterreich","lat":"47.33333","long":"13.33333","pos":"Bae_MF_6-1_4196"},{"name":"Österreich","name_today":"","pid":"https://www.geonames.org/2782113/republic-of-austria.html","key":"Oesterreich","lat":"47.33333","long":"13.33333","pos":"Bae_MF_6-1_4207"},{"name":"Österreich","name_today":"","pid":"https://www.geonames.org/2782113/republic-of-austria.html","key":"Oesterreich","lat":"47.33333","long":"13.33333","pos":"Bae_MF_6-1_4554"},{"name":"Österreich","name_today":"","pid":"https://www.geonames.org/2782113/republic-of-austria.html","key":"Oesterreich","lat":"47.33333","long":"13.33333","pos":"Bae_MF_6-1_4862"},{"name":"Österreich","name_today":"","pid":"https://www.geonames.org/2782113/republic-of-austria.html","key":"Oesterreich","lat":"47.33333","long":"13.33333","pos":"Bae_MF_6-1_4912"},{"name":"Österreich","name_today":"","pid":"https://www.geonames.org/2782113/republic-of-austria.html","key":"Oesterreich","lat":"47.33333","long":"13.33333","pos":"Bae_MF_6-1_4947"},{"name":"Österreich","name_today":"","pid":"https://www.geonames.org/2782113/republic-of-austria.html","key":"Oesterreich","lat":"47.33333","long":"13.33333","pos":"Bae_MF_6-1_4966"},{"name":"Österreich","name_today":"","pid":"https://www.geonames.org/2782113/republic-of-austria.html","key":"Oesterreich","lat":"47.33333","long":"13.33333","pos":"Bae_MF_6-1_4974"},{"name":"Österreich","name_today":"","pid":"https://www.geonames.org/2782113/republic-of-austria.html","key":"Oesterreich","lat":"47.33333","long":"13.33333","pos":"Bae_MF_6-1_4990"},{"name":"Österreich","name_today":"","pid":"https://www.geonames.org/2782113/republic-of-austria.html","key":"Oesterreich","lat":"47.33333","long":"13.33333","pos":"Bae_MF_6-1_5008"},{"name":"Österreich","name_today":"","pid":"https://www.geonames.org/2782113/republic-of-austria.html","key":"Oesterreich","lat":"47.33333","long":"13.33333","pos":"Bae_MF_6-1_5019"},{"name":"Österreich","name_today":"","pid":"https://www.geonames.org/2782113/republic-of-austria.html","key":"Oesterreich","lat":"47.33333","long":"13.33333","pos":"Bae_MF_6-1_5122"},{"name":"Österreich","name_today":"","pid":"https://www.geonames.org/2782113/republic-of-austria.html","key":"Oesterreich","lat":"47.33333","long":"13.33333","pos":"Bae_MF_6-2_598"},{"name":"Österreich","name_today":"","pid":"https://www.geonames.org/2782113/republic-of-austria.html","key":"Oesterreich","lat":"47.33333","long":"13.33333","pos":"Bae_MF_6-2_701"},{"name":"Österreich","name_today":"","pid":"https://www.geonames.org/2782113/republic-of-austria.html","key":"Oesterreich","lat":"47.33333","long":"13.33333","pos":"Bae_MF_6-2_797"},{"name":"Österreich","name_today":"","pid":"https://www.geonames.org/2782113/republic-of-austria.html","key":"Oesterreich","lat":"47.33333","long":"13.33333","pos":"Bae_MF_6-2_1572"},{"name":"Österreich","name_today":"","pid":"https://www.geonames.org/2782113/republic-of-austria.html","key":"Oesterreich","lat":"47.33333","long":"13.33333","pos":"Bae_MF_6-2_1978"},{"name":"Österreich","name_today":"","pid":"https://www.geonames.org/2782113/republic-of-austria.html","key":"Oesterreich","lat":"47.33333","long":"13.33333","pos":"Bae_MF_6-2_3177"},{"name":"Österreich","name_today":"","pid":"https://www.geonames.org/2782113/republic-of-austria.html","key":"Oesterreich","lat":"47.33333","long":"13.33333","pos":"Bae_MF_6-2_3507"},{"name":"Österreich","name_today":"","pid":"https://www.geonames.org/2782113/republic-of-austria.html","key":"Oesterreich","lat":"47.33333","long":"13.33333","pos":"Bae_MF_6-2_3711"},{"name":"Österreich","name_today":"","pid":"https://www.geonames.org/2782113/republic-of-austria.html","key":"Oesterreich","lat":"47.33333","long":"13.33333","pos":"Bae_MF_6-2_4255"},{"name":"Österreich","name_today":"","pid":"https://www.geonames.org/2782113/republic-of-austria.html","key":"Oesterreich","lat":"47.33333","long":"13.33333","pos":"Bae_MF_6-2_4413"},{"name":"Österreich","name_today":"","pid":"https://www.geonames.org/2782113/republic-of-austria.html","key":"Oesterreich","lat":"47.33333","long":"13.33333","pos":"Bae_TB_7_10641"},{"name":"Österreich","name_today":"","pid":"https://www.geonames.org/2782113/republic-of-austria.html","key":"Oesterreich","lat":"47.33333","long":"13.33333","pos":"Bae_TB_7_10705"},{"name":"Österreich","name_today":"","pid":"https://www.geonames.org/2782113/republic-of-austria.html","key":"Oesterreich","lat":"47.33333","long":"13.33333","pos":"Bae_TB_7_10784"},{"name":"Österreich","name_today":"","pid":"https://www.geonames.org/2782113/republic-of-austria.html","key":"Oesterreich","lat":"47.33333","long":"13.33333","pos":"Bae_TB_7_10808"},{"name":"Österreich","name_today":"","pid":"https://www.geonames.org/2782113/republic-of-austria.html","key":"Oesterreich","lat":"47.33333","long":"13.33333","pos":"Bae_TB_7_10833"},{"name":"Österreich","name_today":"","pid":"https://www.geonames.org/2782113/republic-of-austria.html","key":"Oesterreich","lat":"47.33333","long":"13.33333","pos":"Bae_TB_7_10861"},{"name":"Österreich","name_today":"","pid":"https://www.geonames.org/2782113/republic-of-austria.html","key":"Oesterreich","lat":"47.33333","long":"13.33333","pos":"Bae_TB_7_10973"},{"name":"Österreich","name_today":"","pid":"https://www.geonames.org/2782113/republic-of-austria.html","key":"Oesterreich","lat":"47.33333","long":"13.33333","pos":"Bae_TB_7_11236"},{"name":"Österreich","name_today":"","pid":"https://www.geonames.org/2782113/republic-of-austria.html","key":"Oesterreich","lat":"47.33333","long":"13.33333","pos":"Bae_TB_7_12958"},{"name":"Österreich","name_today":"","pid":"https://www.geonames.org/2782113/republic-of-austria.html","key":"Oesterreich","lat":"47.33333","long":"13.33333","pos":"Bae_TB_7_13174"},{"name":"Österreich","name_today":"","pid":"https://www.geonames.org/2782113/republic-of-austria.html","key":"Oesterreich","lat":"47.33333","long":"13.33333","pos":"Bae_TB_7_3487"},{"name":"Österreich","name_today":"","pid":"https://www.geonames.org/2782113/republic-of-austria.html","key":"Oesterreich","lat":"47.33333","long":"13.33333","pos":"Bae_TB_7_3722"},{"name":"Österreich","name_today":"","pid":"https://www.geonames.org/2782113/republic-of-austria.html","key":"Oesterreich","lat":"47.33333","long":"13.33333","pos":"Bae_TB_7_6053"},{"name":"Österreich","name_today":"","pid":"https://www.geonames.org/2782113/republic-of-austria.html","key":"Oesterreich","lat":"47.33333","long":"13.33333","pos":"Bae_TB_7_6123"},{"name":"Österreich","name_today":"","pid":"https://www.geonames.org/2782113/republic-of-austria.html","key":"Oesterreich","lat":"47.33333","long":"13.33333","pos":"Bae_TB_7_6302"},{"name":"Österreich","name_today":"","pid":"https://www.geonames.org/2782113/republic-of-austria.html","key":"Oesterreich","lat":"47.33333","long":"13.33333","pos":"Bae_TB_7_6794"},{"name":"Österreich","name_today":"","pid":"https://www.geonames.org/2782113/republic-of-austria.html","key":"Oesterreich","lat":"47.33333","long":"13.33333","pos":"Bae_TB_7_7203"},{"name":"Österreich","name_today":"","pid":"https://www.geonames.org/2782113/republic-of-austria.html","key":"Oesterreich","lat":"47.33333","long":"13.33333","pos":"Bae_TB_7_7207"},{"name":"Österreich","name_today":"","pid":"https://www.geonames.org/2782113/republic-of-austria.html","key":"Oesterreich","lat":"47.33333","long":"13.33333","pos":"Bae_TB_7_7735"},{"name":"Österreich","name_today":"","pid":"https://www.geonames.org/2782113/republic-of-austria.html","key":"Oesterreich","lat":"47.33333","long":"13.33333","pos":"Bae_TB_7_7739"},{"name":"Österreich","name_today":"","pid":"https://www.geonames.org/2782113/republic-of-austria.html","key":"Oesterreich","lat":"47.33333","long":"13.33333","pos":"Bae_TB_7_8088"},{"name":"Österreich","name_today":"","pid":"https://www.geonames.org/2782113/republic-of-austria.html","key":"Oesterreich","lat":"47.33333","long":"13.33333","pos":"Bae_TB_7_8384"},{"name":"Österreich","name_today":"","pid":"https://www.geonames.org/2782113/republic-of-austria.html","key":"Oesterreich","lat":"47.33333","long":"13.33333","pos":"Bae_TB_7_8555"},{"name":"Österreich","name_today":"","pid":"https://www.geonames.org/2782113/republic-of-austria.html","key":"Oesterreich","lat":"47.33333","long":"13.33333","pos":"Bae_TB_7_8724"},{"name":"Österreich","name_today":"","pid":"https://www.geonames.org/2782113/republic-of-austria.html","key":"Oesterreich","lat":"47.33333","long":"13.33333","pos":"Bae_TB_7_8838"},{"name":"Österreich","name_today":"","pid":"https://www.geonames.org/2782113/republic-of-austria.html","key":"Oesterreich","lat":"47.33333","long":"13.33333","pos":"Bae_TB_7_9261"},{"name":"Österreich","name_today":"","pid":"https://www.geonames.org/2782113/republic-of-austria.html","key":"Oesterreich","lat":"47.33333","long":"13.33333","pos":"Bae_TB_7_9299"},{"name":"Österreich","name_today":"","pid":"https://www.geonames.org/2782113/republic-of-austria.html","key":"Oesterreich","lat":"47.33333","long":"13.33333","pos":"Bae_TB_7_9476"},{"name":"Österreich","name_today":"","pid":"https://www.geonames.org/2782113/republic-of-austria.html","key":"Oesterreich","lat":"47.33333","long":"13.33333","pos":"Bae_TB_7_9527"},{"name":"Österreich","name_today":"","pid":"https://www.geonames.org/2782113/republic-of-austria.html","key":"Oesterreich","lat":"47.33333","long":"13.33333","pos":"Bae_TB_7_10108"},{"name":"Österreich","name_today":"","pid":"https://www.geonames.org/2782113/republic-of-austria.html","key":"Oesterreich","lat":"47.33333","long":"13.33333","pos":"Bae_TB_7_11027"},{"name":"Österreich","name_today":"","pid":"https://www.geonames.org/2782113/republic-of-austria.html","key":"Oesterreich","lat":"47.33333","long":"13.33333","pos":"Bae_TB_7_11076"},{"name":"Österreich","name_today":"","pid":"https://www.geonames.org/2782113/republic-of-austria.html","key":"Oesterreich","lat":"47.33333","long":"13.33333","pos":"Bae_TB_7_13104"},{"name":"Österreich","name_today":"","pid":"https://www.geonames.org/2782113/republic-of-austria.html","key":"Oesterreich","lat":"47.33333","long":"13.33333","pos":"Bae_TB_8_1689"},{"name":"Österreich","name_today":"","pid":"https://www.geonames.org/2782113/republic-of-austria.html","key":"Oesterreich","lat":"47.33333","long":"13.33333","pos":"Bae_TB_8_2539"},{"name":"Österreich","name_today":"","pid":"https://www.geonames.org/2782113/republic-of-austria.html","key":"Oesterreich","lat":"47.33333","long":"13.33333","pos":"Bae_TB_8_5667"},{"name":"Österreich","name_today":"","pid":"https://www.geonames.org/2782113/republic-of-austria.html","key":"Oesterreich","lat":"47.33333","long":"13.33333","pos":"Bae_TB_8_5689"},{"name":"Österreich","name_today":"","pid":"https://www.geonames.org/2782113/republic-of-austria.html","key":"Oesterreich","lat":"47.33333","long":"13.33333","pos":"Bae_TB_8_6062"},{"name":"Österreich","name_today":"","pid":"","key":"Oesterreich","lat":"47.33333","long":"13.33333","pos":"Bae_MF_6-2_295"},{"name":"Österreich","name_today":"","pid":"","key":"Oesterreich","lat":"47.33333","long":"13.33333","pos":"Bae_MF_6-2_323"},{"name":"Österreich","name_today":"","pid":"","key":"Oesterreich","lat":"47.33333","long":"13.33333","pos":"Bae_MF_6-2_884"},{"name":"Österreich","name_today":"","pid":"","key":"Oesterreich","lat":"47.33333","long":"13.33333","pos":"Bae_MF_6-2_1625"},{"name":"Österreich","name_today":"","pid":"","key":"Oesterreich","lat":"47.33333","long":"13.33333","pos":"Bae_MF_6-2_1856"},{"name":"Österreich","name_today":"","pid":"","key":"Oesterreich","lat":"47.33333","long":"13.33333","pos":"Bae_MF_6-2_1860"},{"name":"Österreich","name_today":"","pid":"","key":"Oesterreich","lat":"47.33333","long":"13.33333","pos":"Bae_MF_6-2_1885"},{"name":"Österreich","name_today":"","pid":"","key":"Oesterreich","lat":"47.33333","long":"13.33333","pos":"Bae_MF_6-2_1889"},{"name":"Österreich","name_today":"","pid":"","key":"Oesterreich","lat":"47.33333","long":"13.33333","pos":"Bae_MF_6-2_1899"},{"name":"Österreich","name_today":"","pid":"","key":"Oesterreich","lat":"47.33333","long":"13.33333","pos":"Bae_MF_6-2_1903"},{"name":"Österreich","name_today":"","pid":"","key":"Oesterreich","lat":"47.33333","long":"13.33333","pos":"Bae_MF_6-2_1931"},{"name":"Österreich","name_today":"","pid":"","key":"Oesterreich","lat":"47.33333","long":"13.33333","pos":"Bae_MF_6-2_1970"},{"name":"Österreich","name_today":"","pid":"","key":"Oesterreich","lat":"47.33333","long":"13.33333","pos":"Bae_MF_6-2_2202"},{"name":"Österreich","name_today":"","pid":"","key":"Oesterreich","lat":"47.33333","long":"13.33333","pos":"Bae_MF_6-2_2765"},{"name":"Ofen","name_today":"Buda","pid":"https://www.geonames.org/3054667/buda.html","key":"Ofen","lat":"47.5","long":"19.03333","pos":"Bae_MF_6-2_505"},{"name":"Ofen","name_today":"Buda","pid":"https://www.geonames.org/3054667/buda.html","key":"Ofen","lat":"47.5","long":"19.03333","pos":"Bae_TB_7_1455"},{"name":"Ofen","name_today":"Buda","pid":"https://www.geonames.org/3054667/buda.html","key":"Ofen","lat":"47.5","long":"19.03333","pos":"Bae_TB_8_5985"},{"name":"Olmütz","name_today":"Olomouc","pid":"https://www.geonames.org/3069011/olomouc.html","key":"Olmuetz","lat":"","long":"","pos":"Bae_TB_8_1160"},{"name":"Polnisch-Ostrau","name_today":"Ostrava","pid":"https://www.geonames.org/11921098/ostrava.html","key":"Ostrava","lat":"49.8147","long":"18.24781","pos":"Bae_TB_7_1768"},{"name":"Ostschlesien","name_today":"","pid":"https://d-nb.info/gnd/4280197-7","key":"Ostschlesien","lat":"","long":"","pos":"Bae_TB_7_12857"},{"name":"Ostschlesien","name_today":"","pid":"https://d-nb.info/gnd/4280197-7","key":"Ostschlesien","lat":"","long":"","pos":"Bae_TB_7_12869"},{"name":"Paris","name_today":"","pid":"https://www.geonames.org/2988507/paris.html","key":"Paris","lat":"48.85341","long":"2.3488","pos":"Bae_MF_6-2_6164"},{"name":"Petschau","name_today":"Bečov nad Teplou","pid":"https://www.geonames.org/3079609/becov-nad-teplou.html","key":"Petschau","lat":"50.08345","long":"12.83831","pos":"Bae_MF_6-1_922"},{"name":"Petschau","name_today":"Bečov nad Teplou","pid":"https://www.geonames.org/3079609/becov-nad-teplou.html","key":"Petschau","lat":"50.08345","long":"12.83831","pos":"Bae_TB_7_4081"},{"name":"Pilsen","name_today":"Plzeň","pid":"https://www.geonames.org/3068160/pilsen.html","key":"Pilsen","lat":"49.74747","long":"13.37759","pos":"Bae_MF_6-2_4885"},{"name":"Pilsen","name_today":"Plzeň","pid":"https://www.geonames.org/3068160/pilsen.html","key":"Pilsen","lat":"49.74747","long":"13.37759","pos":"Bae_MF_6-2_4897"},{"name":"Podersam","name_today":"Podbořany","pid":"https://www.geonames.org/3068119/podborany.html","key":"Podersam","lat":"50.22937","long":"13.41192","pos":"Bae_MF_6-1_851"},{"name":"Podersam","name_today":"Podbořany","pid":"https://www.geonames.org/3068119/podborany.html","key":"Podersam","lat":"50.22937","long":"13.41192","pos":"Bae_MF_6-2_6065"},{"name":"Podersam","name_today":"Podbořany","pid":"https://www.geonames.org/3068119/podborany.html","key":"Podersam","lat":"50.22937","long":"13.41192","pos":"Bae_TB_7_3953"},{"name":"Prag","name_today":"Praha","pid":"https://www.geonames.org/3067696/prague.html","key":"Prag","lat":"50.08804","long":"14.42076","pos":"Bae_MF_6-1_281"},{"name":"Prag","name_today":"Praha","pid":"https://www.geonames.org/3067696/prague.html","key":"Prag","lat":"50.08804","long":"14.42076","pos":"Bae_MF_6-1_293"},{"name":"Prag","name_today":"Praha","pid":"https://www.geonames.org/3067696/prague.html","key":"Prag","lat":"50.08804","long":"14.42076","pos":"Bae_MF_6-1_857"},{"name":"Prag","name_today":"Praha","pid":"https://www.geonames.org/3067696/prague.html","key":"Prag","lat":"50.08804","long":"14.42076","pos":"Bae_MF_6-1_1251"},{"name":"Prag","name_today":"Praha","pid":"https://www.geonames.org/3067696/prague.html","key":"Prag","lat":"50.08804","long":"14.42076","pos":"Bae_MF_6-1_1304"},{"name":"Prag","name_today":"Praha","pid":"https://www.geonames.org/3067696/prague.html","key":"Prag","lat":"50.08804","long":"14.42076","pos":"Bae_MF_6-1_2708"},{"name":"Prag","name_today":"Praha","pid":"https://www.geonames.org/3067696/prague.html","key":"Prag","lat":"50.08804","long":"14.42076","pos":"Bae_MF_6-2_949"},{"name":"Prag","name_today":"Praha","pid":"https://www.geonames.org/3067696/prague.html","key":"Prag","lat":"50.08804","long":"14.42076","pos":"Bae_MF_6-2_1723"},{"name":"Prag","name_today":"Praha","pid":"https://www.geonames.org/3067696/prague.html","key":"Prag","lat":"50.08804","long":"14.42076","pos":"Bae_MF_6-2_2519"},{"name":"Prag","name_today":"Praha","pid":"https://www.geonames.org/3067696/prague.html","key":"Prag","lat":"50.08804","long":"14.42076","pos":"Bae_MF_6-2_2902"},{"name":"Prag","name_today":"Praha","pid":"https://www.geonames.org/3067696/prague.html","key":"Prag","lat":"50.08804","long":"14.42076","pos":"Bae_MF_6-2_3173"},{"name":"Prag","name_today":"Praha","pid":"https://www.geonames.org/3067696/prague.html","key":"Prag","lat":"50.08804","long":"14.42076","pos":"Bae_MF_6-2_3603"},{"name":"Prag","name_today":"Praha","pid":"https://www.geonames.org/3067696/prague.html","key":"Prag","lat":"50.08804","long":"14.42076","pos":"Bae_MF_6-2_4877"},{"name":"Prag","name_today":"Praha","pid":"https://www.geonames.org/3067696/prague.html","key":"Prag","lat":"50.08804","long":"14.42076","pos":"Bae_MF_6-2_4889"},{"name":"Prag","name_today":"Praha","pid":"https://www.geonames.org/3067696/prague.html","key":"Prag","lat":"50.08804","long":"14.42076","pos":"Bae_MF_6-2_6219"},{"name":"Prag","name_today":"Praha","pid":"https://www.geonames.org/3067696/prague.html","key":"Prag","lat":"50.08804","long":"14.42076","pos":"Bae_TB_7_12465"},{"name":"Prag","name_today":"Praha","pid":"https://www.geonames.org/3067696/prague.html","key":"Prag","lat":"50.08804","long":"14.42076","pos":"Bae_TB_7_12673"},{"name":"Prag","name_today":"Praha","pid":"https://www.geonames.org/3067696/prague.html","key":"Prag","lat":"50.08804","long":"14.42076","pos":"Bae_TB_7_12691"},{"name":"Prag","name_today":"Praha","pid":"https://www.geonames.org/3067696/prague.html","key":"Prag","lat":"50.08804","long":"14.42076","pos":"Bae_TB_7_631"},{"name":"Prag","name_today":"Praha","pid":"https://www.geonames.org/3067696/prague.html","key":"Prag","lat":"50.08804","long":"14.42076","pos":"Bae_TB_7_2932"},{"name":"Prag","name_today":"Praha","pid":"https://www.geonames.org/3067696/prague.html","key":"Prag","lat":"50.08804","long":"14.42076","pos":"Bae_TB_7_3983"},{"name":"Prag","name_today":"Praha","pid":"https://www.geonames.org/3067696/prague.html","key":"Prag","lat":"50.08804","long":"14.42076","pos":"Bae_TB_7_4704"},{"name":"Prag","name_today":"Praha","pid":"https://www.geonames.org/3067696/prague.html","key":"Prag","lat":"50.08804","long":"14.42076","pos":"Bae_TB_7_4768"},{"name":"Prag","name_today":"Praha","pid":"https://www.geonames.org/3067696/prague.html","key":"Prag","lat":"50.08804","long":"14.42076","pos":"Bae_TB_7_4894"},{"name":"Prag","name_today":"Praha","pid":"https://www.geonames.org/3067696/prague.html","key":"Prag","lat":"50.08804","long":"14.42076","pos":"Bae_TB_7_6486"},{"name":"Prag","name_today":"Praha","pid":"https://www.geonames.org/3067696/prague.html","key":"Prag","lat":"50.08804","long":"14.42076","pos":"Bae_TB_8_1884"},{"name":"Prag","name_today":"Praha","pid":"https://www.geonames.org/3067696/prague.html","key":"Prag","lat":"50.08804","long":"14.42076","pos":"Bae_TB_8_4203"},{"name":"Rákospalota (XV. Budapester Bezirk)","name_today":"Rákospalota","pid":"","key":"RakosPalota","lat":"","long":"","pos":"Bae_MF_6-1_4308"},{"name":"Rákospalota (XV. Budapester Bezirk)","name_today":"Rákospalota","pid":"","key":"RakosPalota","lat":"","long":"","pos":"Bae_TB_7_9712"},{"name":"Reichenberg","name_today":"Liberec","pid":"https://www.geonames.org/11924204/liberec.html","key":"Reichenberg","lat":"50.76552","long":"15.05351","pos":"Bae_TB_8_1185"},{"name":"Reichenberg","name_today":"Liberec","pid":"https://www.geonames.org/11924204/liberec.html","key":"Reichenberg","lat":"50.76552","long":"15.05351","pos":"Bae_TB_8_4213"},{"name":"Reichenberg","name_today":"Liberec","pid":"https://www.geonames.org/11924204/liberec.html","key":"Reichenberg","lat":"50.76552","long":"15.05351","pos":"Bae_TB_8_4254"},{"name":"Rovereto","name_today":"","pid":"https://www.geonames.org/6539916/rovereto.html","key":"Rovereto","lat":"45.8896","long":"11.03868","pos":"Bae_TB_7_2170"},{"name":"Rovereto","name_today":"","pid":"https://www.geonames.org/6539916/rovereto.html","key":"Rovereto","lat":"45.8896","long":"11.03868","pos":"Bae_TB_7_2296"},{"name":"Russland","name_today":"","pid":"https://www.geonames.org/2017370/russian-federation.html","key":"Russland","lat":"60","long":"100","pos":"Bae_TB_7_12503"},{"name":"Russland","name_today":"","pid":"","key":"Russland","lat":"60","long":"100","pos":"Bae_MF_6-2_1657"},{"name":"Russland","name_today":"","pid":"","key":"Russland","lat":"60","long":"100","pos":"Bae_MF_6-2_1746"},{"name":"Saaz","name_today":"Žatec","pid":"https://www.geonames.org/3061822/zatec.html","key":"Saaz","lat":"50.32717","long":"13.54577","pos":"Bae_MF_6-2_5929"},{"name":"Sangerberg","name_today":"Prameny","pid":"https://www.geonames.org/3067688/prameny.html","key":"Sangerberg","lat":"50.05007","long":"12.73279","pos":"Bae_MF_6-2_6192"},{"name":"Schlesien","name_today":"Slezsko","pid":"https://www.geonames.org/11748058/silesian-metropolis.html","key":"Schlesien","lat":"50.25423","long":"19.13818","pos":"Bae_MF_6-2_5893"},{"name":"Starnberger See","name_today":"","pid":"https://www.geonames.org/2829454/starnberger-see.html","key":"StarnbergerSee","lat":"47.90348","long":"11.31187","pos":"Bae_MF_6-1_1807"},{"name":"Steiermark","name_today":"","pid":"https://www.geonames.org/2764581/steiermark.html","key":"Steiermark","lat":"47.25","long":"15.16667","pos":"Bae_MF_6-2_5044"},{"name":"Steiermark","name_today":"","pid":"https://www.geonames.org/2764581/steiermark.html","key":"Steiermark","lat":"47.25","long":"15.16667","pos":"Bae_MF_6-2_5885"},{"name":"Steiermark","name_today":"","pid":"https://www.geonames.org/2764581/steiermark.html","key":"Steiermark","lat":"47.25","long":"15.16667","pos":"Bae_TB_7_12877"},{"name":"Steiermark","name_today":"","pid":"https://www.geonames.org/2764581/steiermark.html","key":"Steiermark","lat":"47.25","long":"15.16667","pos":"Bae_TB_7_3618"},{"name":"Steiermark","name_today":"","pid":"https://www.geonames.org/2764581/steiermark.html","key":"Steiermark","lat":"47.25","long":"15.16667","pos":"Bae_TB_8_4403"},{"name":"Temesvar","name_today":"Timișoara","pid":"https://www.geonames.org/665087/timisoara.html","key":"Temesvar","lat":"45.75372","long":"21.22571","pos":"Bae_TB_8_3665"},{"name":"Teschen","name_today":"Cieszyn","pid":"https://www.geonames.org/7532301/cieszyn.html","key":"Teschen","lat":"49.74922","long":"18.63178","pos":"Bae_TB_7_1626"},{"name":"Teschen","name_today":"Cieszyn","pid":"https://www.geonames.org/7532301/cieszyn.html","key":"Teschen","lat":"49.74922","long":"18.63178","pos":"Bae_TB_7_1652"},{"name":"Teschen","name_today":"Cieszyn","pid":"https://www.geonames.org/7532301/cieszyn.html","key":"Teschen","lat":"49.74922","long":"18.63178","pos":"Bae_TB_7_1764"},{"name":"Teschen","name_today":"Cieszyn","pid":"https://www.geonames.org/7532301/cieszyn.html","key":"Teschen","lat":"49.74922","long":"18.63178","pos":"Bae_TB_7_1774"},{"name":"Teschen","name_today":"Cieszyn","pid":"https://www.geonames.org/7532301/cieszyn.html","key":"Teschen","lat":"49.74922","long":"18.63178","pos":"Bae_TB_7_4281"},{"name":"Theresienstadt (VI. Bezirk von Budapest)","name_today":"Terézváros","pid":"","key":"Theresienstadt","lat":"","long":"","pos":"Bae_MF_6-1_5376"},{"name":"Theresienstadt (VI. Bezirk von Budapest)","name_today":"Terézváros","pid":"","key":"Theresienstadt","lat":"","long":"","pos":"Bae_TB_7_11661"},{"name":"Tirol","name_today":"","pid":"https://www.geonames.org/2763587/tyrol.html","key":"Tirol","lat":"47.25","long":"11.33333","pos":"Bae_MF_6-2_5877"},{"name":"Tirol","name_today":"","pid":"https://www.geonames.org/2763587/tyrol.html","key":"Tirol","lat":"47.25","long":"11.33333","pos":"Bae_TB_7_2409"},{"name":"Trautenau","name_today":"Trutnov","pid":"https://www.geonames.org/3063907/trutnov.html","key":"Trautenau","lat":"50.56101","long":"15.9127","pos":"Bae_MF_6-2_2507"},{"name":"Trautenau","name_today":"Trutnov","pid":"https://www.geonames.org/3063907/trutnov.html","key":"Trautenau","lat":"50.56101","long":"15.9127","pos":"Bae_TB_8_1019"},{"name":"Trentino","name_today":"Trentino","pid":"https://www.geonames.org/3165241/provincia-autonoma-di-trento.html","key":"Trentino","lat":"46.06966","long":"11.12177","pos":"Bae_TB_7_2098"},{"name":"Triest","name_today":"Trieste","pid":"https://www.geonames.org/3165185/trieste.html","key":"Triest","lat":"45.64953","long":"13.77678","pos":"Bae_TB_7_612"},{"name":"Triest","name_today":"Trieste","pid":"https://www.geonames.org/3165185/trieste.html","key":"Triest","lat":"45.64953","long":"13.77678","pos":"Bae_TB_7_2192"},{"name":"Triest","name_today":"Trieste","pid":"https://www.geonames.org/3165185/trieste.html","key":"Triest","lat":"45.64953","long":"13.77678","pos":"Bae_TB_7_2216"},{"name":"Triest","name_today":"Trieste","pid":"https://www.geonames.org/3165185/trieste.html","key":"Triest","lat":"45.64953","long":"13.77678","pos":"Bae_TB_7_2239"},{"name":"Troppau","name_today":"Opava","pid":"https://www.geonames.org/11920184/opava.html","key":"Troppau","lat":"49.93612","long":"17.90441","pos":"Bae_TB_7_1630"},{"name":"Troppau","name_today":"Opava","pid":"https://www.geonames.org/11920184/opava.html","key":"Troppau","lat":"49.93612","long":"17.90441","pos":"Bae_TB_7_1656"},{"name":"Troppau","name_today":"Opava","pid":"https://www.geonames.org/11920184/opava.html","key":"Troppau","lat":"49.93612","long":"17.90441","pos":"Bae_TB_7_1696"},{"name":"Troppau","name_today":"Opava","pid":"https://www.geonames.org/11920184/opava.html","key":"Troppau","lat":"49.93612","long":"17.90441","pos":"Bae_TB_7_1778"},{"name":"Troppau","name_today":"Opava","pid":"https://www.geonames.org/11920184/opava.html","key":"Troppau","lat":"49.93612","long":"17.90441","pos":"Bae_TB_7_4270"},{"name":"Troppau","name_today":"Opava","pid":"https://www.geonames.org/11920184/opava.html","key":"Troppau","lat":"49.93612","long":"17.90441","pos":"Bae_TB_7_4285"},{"name":"Ungarn","name_today":"Magyarország","pid":"https://www.geonames.org/719819/hungary.html","key":"Ungarn","lat":"47","long":"20","pos":"Bae_MF_6-1_761"},{"name":"Ungarn","name_today":"Magyarország","pid":"https://www.geonames.org/719819/hungary.html","key":"Ungarn","lat":"47","long":"20","pos":"Bae_MF_6-1_1909"},{"name":"Ungarn","name_today":"Magyarország","pid":"https://www.geonames.org/719819/hungary.html","key":"Ungarn","lat":"47","long":"20","pos":"Bae_MF_6-1_1973"},{"name":"Ungarn","name_today":"Magyarország","pid":"https://www.geonames.org/719819/hungary.html","key":"Ungarn","lat":"47","long":"20","pos":"Bae_MF_6-1_2020"},{"name":"Ungarn","name_today":"Magyarország","pid":"https://www.geonames.org/719819/hungary.html","key":"Ungarn","lat":"47","long":"20","pos":"Bae_MF_6-1_2037"},{"name":"Ungarn","name_today":"Magyarország","pid":"https://www.geonames.org/719819/hungary.html","key":"Ungarn","lat":"47","long":"20","pos":"Bae_MF_6-1_2052"},{"name":"Ungarn","name_today":"Magyarország","pid":"https://www.geonames.org/719819/hungary.html","key":"Ungarn","lat":"47","long":"20","pos":"Bae_MF_6-1_2060"},{"name":"Ungarn","name_today":"Magyarország","pid":"https://www.geonames.org/719819/hungary.html","key":"Ungarn","lat":"47","long":"20","pos":"Bae_MF_6-1_2076"},{"name":"Ungarn","name_today":"Magyarország","pid":"https://www.geonames.org/719819/hungary.html","key":"Ungarn","lat":"47","long":"20","pos":"Bae_MF_6-1_2104"},{"name":"Ungarn","name_today":"Magyarország","pid":"https://www.geonames.org/719819/hungary.html","key":"Ungarn","lat":"47","long":"20","pos":"Bae_MF_6-1_2121"},{"name":"Ungarn","name_today":"Magyarország","pid":"https://www.geonames.org/719819/hungary.html","key":"Ungarn","lat":"47","long":"20","pos":"Bae_MF_6-1_2129"},{"name":"Ungarn","name_today":"Magyarország","pid":"https://www.geonames.org/719819/hungary.html","key":"Ungarn","lat":"47","long":"20","pos":"Bae_MF_6-1_2319"},{"name":"Ungarn","name_today":"Magyarország","pid":"https://www.geonames.org/719819/hungary.html","key":"Ungarn","lat":"47","long":"20","pos":"Bae_MF_6-1_2473"},{"name":"Ungarn","name_today":"Magyarország","pid":"https://www.geonames.org/719819/hungary.html","key":"Ungarn","lat":"47","long":"20","pos":"Bae_MF_6-1_2629"},{"name":"Ungarn","name_today":"Magyarország","pid":"https://www.geonames.org/719819/hungary.html","key":"Ungarn","lat":"47","long":"20","pos":"Bae_MF_6-1_2661"},{"name":"Ungarn","name_today":"Magyarország","pid":"https://www.geonames.org/719819/hungary.html","key":"Ungarn","lat":"47","long":"20","pos":"Bae_MF_6-1_3173"},{"name":"Ungarn","name_today":"Magyarország","pid":"https://www.geonames.org/719819/hungary.html","key":"Ungarn","lat":"47","long":"20","pos":"Bae_MF_6-1_3255"},{"name":"Ungarn","name_today":"Magyarország","pid":"https://www.geonames.org/719819/hungary.html","key":"Ungarn","lat":"47","long":"20","pos":"Bae_MF_6-1_3298"},{"name":"Ungarn","name_today":"Magyarország","pid":"https://www.geonames.org/719819/hungary.html","key":"Ungarn","lat":"47","long":"20","pos":"Bae_MF_6-1_3411"},{"name":"Ungarn","name_today":"Magyarország","pid":"https://www.geonames.org/719819/hungary.html","key":"Ungarn","lat":"47","long":"20","pos":"Bae_MF_6-1_3493"},{"name":"Ungarn","name_today":"Magyarország","pid":"https://www.geonames.org/719819/hungary.html","key":"Ungarn","lat":"47","long":"20","pos":"Bae_MF_6-1_3505"},{"name":"Ungarn","name_today":"Magyarország","pid":"https://www.geonames.org/719819/hungary.html","key":"Ungarn","lat":"47","long":"20","pos":"Bae_MF_6-1_3537"},{"name":"Ungarn","name_today":"Magyarország","pid":"https://www.geonames.org/719819/hungary.html","key":"Ungarn","lat":"47","long":"20","pos":"Bae_MF_6-1_3760"},{"name":"Ungarn","name_today":"Magyarország","pid":"https://www.geonames.org/719819/hungary.html","key":"Ungarn","lat":"47","long":"20","pos":"Bae_MF_6-1_3773"},{"name":"Ungarn","name_today":"Magyarország","pid":"https://www.geonames.org/719819/hungary.html","key":"Ungarn","lat":"47","long":"20","pos":"Bae_MF_6-1_4192"},{"name":"Ungarn","name_today":"Magyarország","pid":"https://www.geonames.org/719819/hungary.html","key":"Ungarn","lat":"47","long":"20","pos":"Bae_MF_6-1_4277"},{"name":"Ungarn","name_today":"Magyarország","pid":"https://www.geonames.org/719819/hungary.html","key":"Ungarn","lat":"47","long":"20","pos":"Bae_MF_6-1_4851"},{"name":"Ungarn","name_today":"Magyarország","pid":"https://www.geonames.org/719819/hungary.html","key":"Ungarn","lat":"47","long":"20","pos":"Bae_MF_6-1_4908"},{"name":"Ungarn","name_today":"Magyarország","pid":"https://www.geonames.org/719819/hungary.html","key":"Ungarn","lat":"47","long":"20","pos":"Bae_MF_6-1_4951"},{"name":"Ungarn","name_today":"Magyarország","pid":"https://www.geonames.org/719819/hungary.html","key":"Ungarn","lat":"47","long":"20","pos":"Bae_MF_6-1_4970"},{"name":"Ungarn","name_today":"Magyarország","pid":"https://www.geonames.org/719819/hungary.html","key":"Ungarn","lat":"47","long":"20","pos":"Bae_MF_6-1_4978"},{"name":"Ungarn","name_today":"Magyarország","pid":"https://www.geonames.org/719819/hungary.html","key":"Ungarn","lat":"47","long":"20","pos":"Bae_MF_6-1_4982"},{"name":"Ungarn","name_today":"Magyarország","pid":"https://www.geonames.org/719819/hungary.html","key":"Ungarn","lat":"47","long":"20","pos":"Bae_MF_6-1_4986"},{"name":"Ungarn","name_today":"Magyarország","pid":"https://www.geonames.org/719819/hungary.html","key":"Ungarn","lat":"47","long":"20","pos":"Bae_MF_6-1_4996"},{"name":"Ungarn","name_today":"Magyarország","pid":"https://www.geonames.org/719819/hungary.html","key":"Ungarn","lat":"47","long":"20","pos":"Bae_MF_6-1_5000"},{"name":"Ungarn","name_today":"Magyarország","pid":"https://www.geonames.org/719819/hungary.html","key":"Ungarn","lat":"47","long":"20","pos":"Bae_MF_6-1_5060"},{"name":"Ungarn","name_today":"Magyarország","pid":"https://www.geonames.org/719819/hungary.html","key":"Ungarn","lat":"47","long":"20","pos":"Bae_MF_6-1_5097"},{"name":"Ungarn","name_today":"Magyarország","pid":"https://www.geonames.org/719819/hungary.html","key":"Ungarn","lat":"47","long":"20","pos":"Bae_MF_6-1_5110"},{"name":"Ungarn","name_today":"Magyarország","pid":"https://www.geonames.org/719819/hungary.html","key":"Ungarn","lat":"47","long":"20","pos":"Bae_MF_6-1_5126"},{"name":"Ungarn","name_today":"Magyarország","pid":"https://www.geonames.org/719819/hungary.html","key":"Ungarn","lat":"47","long":"20","pos":"Bae_MF_6-1_5151"},{"name":"Ungarn","name_today":"Magyarország","pid":"https://www.geonames.org/719819/hungary.html","key":"Ungarn","lat":"47","long":"20","pos":"Bae_MF_6-1_5177"},{"name":"Ungarn","name_today":"Magyarország","pid":"https://www.geonames.org/719819/hungary.html","key":"Ungarn","lat":"47","long":"20","pos":"Bae_MF_6-1_5195"},{"name":"Ungarn","name_today":"Magyarország","pid":"https://www.geonames.org/719819/hungary.html","key":"Ungarn","lat":"47","long":"20","pos":"Bae_MF_6-1_5225"},{"name":"Ungarn","name_today":"Magyarország","pid":"https://www.geonames.org/719819/hungary.html","key":"Ungarn","lat":"47","long":"20","pos":"Bae_MF_6-1_5345"},{"name":"Ungarn","name_today":"Magyarország","pid":"https://www.geonames.org/719819/hungary.html","key":"Ungarn","lat":"47","long":"20","pos":"Bae_MF_6-1_5370"},{"name":"Ungarn","name_today":"Magyarország","pid":"https://www.geonames.org/719819/hungary.html","key":"Ungarn","lat":"47","long":"20","pos":"Bae_MF_6-1_5569"},{"name":"Ungarn","name_today":"Magyarország","pid":"https://www.geonames.org/719819/hungary.html","key":"Ungarn","lat":"47","long":"20","pos":"Bae_MF_6-2_463"},{"name":"Ungarn","name_today":"Magyarország","pid":"https://www.geonames.org/719819/hungary.html","key":"Ungarn","lat":"47","long":"20","pos":"Bae_MF_6-2_561"},{"name":"Ungarn","name_today":"Magyarország","pid":"https://www.geonames.org/719819/hungary.html","key":"Ungarn","lat":"47","long":"20","pos":"Bae_MF_6-2_705"},{"name":"Ungarn","name_today":"Magyarország","pid":"https://www.geonames.org/719819/hungary.html","key":"Ungarn","lat":"47","long":"20","pos":"Bae_MF_6-2_1462"},{"name":"Ungarn","name_today":"Magyarország","pid":"https://www.geonames.org/719819/hungary.html","key":"Ungarn","lat":"47","long":"20","pos":"Bae_MF_6-2_1508"},{"name":"Ungarn","name_today":"Magyarország","pid":"https://www.geonames.org/719819/hungary.html","key":"Ungarn","lat":"47","long":"20","pos":"Bae_MF_6-2_1605"},{"name":"Ungarn","name_today":"Magyarország","pid":"https://www.geonames.org/719819/hungary.html","key":"Ungarn","lat":"47","long":"20","pos":"Bae_MF_6-2_3626"},{"name":"Ungarn","name_today":"Magyarország","pid":"https://www.geonames.org/719819/hungary.html","key":"Ungarn","lat":"47","long":"20","pos":"Bae_MF_6-2_3662"},{"name":"Ungarn","name_today":"Magyarország","pid":"https://www.geonames.org/719819/hungary.html","key":"Ungarn","lat":"47","long":"20","pos":"Bae_MF_6-2_4093"},{"name":"Ungarn","name_today":"Magyarország","pid":"https://www.geonames.org/719819/hungary.html","key":"Ungarn","lat":"47","long":"20","pos":"Bae_MF_6-2_4298"},{"name":"Ungarn","name_today":"Magyarország","pid":"https://www.geonames.org/719819/hungary.html","key":"Ungarn","lat":"47","long":"20","pos":"Bae_MF_6-2_4327"},{"name":"Ungarn","name_today":"Magyarország","pid":"https://www.geonames.org/719819/hungary.html","key":"Ungarn","lat":"47","long":"20","pos":"Bae_MF_6-2_4409"},{"name":"Ungarn","name_today":"Magyarország","pid":"https://www.geonames.org/719819/hungary.html","key":"Ungarn","lat":"47","long":"20","pos":"Bae_MF_6-2_5819"},{"name":"Ungarn","name_today":"Magyarország","pid":"https://www.geonames.org/719819/hungary.html","key":"Ungarn","lat":"47","long":"20","pos":"Bae_TB_7_10258"},{"name":"Ungarn","name_today":"Magyarország","pid":"https://www.geonames.org/719819/hungary.html","key":"Ungarn","lat":"47","long":"20","pos":"Bae_TB_7_10482"},{"name":"Ungarn","name_today":"Magyarország","pid":"https://www.geonames.org/719819/hungary.html","key":"Ungarn","lat":"47","long":"20","pos":"Bae_TB_7_10507"},{"name":"Ungarn","name_today":"Magyarország","pid":"https://www.geonames.org/719819/hungary.html","key":"Ungarn","lat":"47","long":"20","pos":"Bae_TB_7_10621"},{"name":"Ungarn","name_today":"Magyarország","pid":"https://www.geonames.org/719819/hungary.html","key":"Ungarn","lat":"47","long":"20","pos":"Bae_TB_7_10701"},{"name":"Ungarn","name_today":"Magyarország","pid":"https://www.geonames.org/719819/hungary.html","key":"Ungarn","lat":"47","long":"20","pos":"Bae_TB_7_10795"},{"name":"Ungarn","name_today":"Magyarország","pid":"https://www.geonames.org/719819/hungary.html","key":"Ungarn","lat":"47","long":"20","pos":"Bae_TB_7_10814"},{"name":"Ungarn","name_today":"Magyarország","pid":"https://www.geonames.org/719819/hungary.html","key":"Ungarn","lat":"47","long":"20","pos":"Bae_TB_7_10837"},{"name":"Ungarn","name_today":"Magyarország","pid":"https://www.geonames.org/719819/hungary.html","key":"Ungarn","lat":"47","long":"20","pos":"Bae_TB_7_10841"},{"name":"Ungarn","name_today":"Magyarország","pid":"https://www.geonames.org/719819/hungary.html","key":"Ungarn","lat":"47","long":"20","pos":"Bae_TB_7_10857"},{"name":"Ungarn","name_today":"Magyarország","pid":"https://www.geonames.org/719819/hungary.html","key":"Ungarn","lat":"47","long":"20","pos":"Bae_TB_7_10883"},{"name":"Ungarn","name_today":"Magyarország","pid":"https://www.geonames.org/719819/hungary.html","key":"Ungarn","lat":"47","long":"20","pos":"Bae_TB_7_10914"},{"name":"Ungarn","name_today":"Magyarország","pid":"https://www.geonames.org/719819/hungary.html","key":"Ungarn","lat":"47","long":"20","pos":"Bae_TB_7_11139"},{"name":"Ungarn","name_today":"Magyarország","pid":"https://www.geonames.org/719819/hungary.html","key":"Ungarn","lat":"47","long":"20","pos":"Bae_TB_7_11143"},{"name":"Ungarn","name_today":"Magyarország","pid":"https://www.geonames.org/719819/hungary.html","key":"Ungarn","lat":"47","long":"20","pos":"Bae_TB_7_11202"},{"name":"Ungarn","name_today":"Magyarország","pid":"https://www.geonames.org/719819/hungary.html","key":"Ungarn","lat":"47","long":"20","pos":"Bae_TB_7_11215"},{"name":"Ungarn","name_today":"Magyarország","pid":"https://www.geonames.org/719819/hungary.html","key":"Ungarn","lat":"47","long":"20","pos":"Bae_TB_7_11247"},{"name":"Ungarn","name_today":"Magyarország","pid":"https://www.geonames.org/719819/hungary.html","key":"Ungarn","lat":"47","long":"20","pos":"Bae_TB_7_11312"},{"name":"Ungarn","name_today":"Magyarország","pid":"https://www.geonames.org/719819/hungary.html","key":"Ungarn","lat":"47","long":"20","pos":"Bae_TB_7_11408"},{"name":"Ungarn","name_today":"Magyarország","pid":"https://www.geonames.org/719819/hungary.html","key":"Ungarn","lat":"47","long":"20","pos":"Bae_TB_7_11632"},{"name":"Ungarn","name_today":"Magyarország","pid":"https://www.geonames.org/719819/hungary.html","key":"Ungarn","lat":"47","long":"20","pos":"Bae_TB_7_11657"},{"name":"Ungarn","name_today":"Magyarország","pid":"https://www.geonames.org/719819/hungary.html","key":"Ungarn","lat":"47","long":"20","pos":"Bae_TB_7_11961"},{"name":"Ungarn","name_today":"Magyarország","pid":"https://www.geonames.org/719819/hungary.html","key":"Ungarn","lat":"47","long":"20","pos":"Bae_TB_7_12651"},{"name":"Ungarn","name_today":"Magyarország","pid":"https://www.geonames.org/719819/hungary.html","key":"Ungarn","lat":"47","long":"20","pos":"Bae_TB_7_13246"},{"name":"Ungarn","name_today":"Magyarország","pid":"https://www.geonames.org/719819/hungary.html","key":"Ungarn","lat":"47","long":"20","pos":"Bae_TB_7_13340"},{"name":"Ungarn","name_today":"Magyarország","pid":"https://www.geonames.org/719819/hungary.html","key":"Ungarn","lat":"47","long":"20","pos":"Bae_TB_7_13383"},{"name":"Ungarn","name_today":"Magyarország","pid":"https://www.geonames.org/719819/hungary.html","key":"Ungarn","lat":"47","long":"20","pos":"Bae_TB_7_384"},{"name":"Ungarn","name_today":"Magyarország","pid":"https://www.geonames.org/719819/hungary.html","key":"Ungarn","lat":"47","long":"20","pos":"Bae_TB_7_392"},{"name":"Ungarn","name_today":"Magyarország","pid":"https://www.geonames.org/719819/hungary.html","key":"Ungarn","lat":"47","long":"20","pos":"Bae_TB_7_6020"},{"name":"Ungarn","name_today":"Magyarország","pid":"https://www.geonames.org/719819/hungary.html","key":"Ungarn","lat":"47","long":"20","pos":"Bae_TB_7_6064"},{"name":"Ungarn","name_today":"Magyarország","pid":"https://www.geonames.org/719819/hungary.html","key":"Ungarn","lat":"47","long":"20","pos":"Bae_TB_7_6298"},{"name":"Ungarn","name_today":"Magyarország","pid":"https://www.geonames.org/719819/hungary.html","key":"Ungarn","lat":"47","long":"20","pos":"Bae_TB_7_6379"},{"name":"Ungarn","name_today":"Magyarország","pid":"https://www.geonames.org/719819/hungary.html","key":"Ungarn","lat":"47","long":"20","pos":"Bae_TB_7_6545"},{"name":"Ungarn","name_today":"Magyarország","pid":"https://www.geonames.org/719819/hungary.html","key":"Ungarn","lat":"47","long":"20","pos":"Bae_TB_7_6798"},{"name":"Ungarn","name_today":"Magyarország","pid":"https://www.geonames.org/719819/hungary.html","key":"Ungarn","lat":"47","long":"20","pos":"Bae_TB_7_6836"},{"name":"Ungarn","name_today":"Magyarország","pid":"https://www.geonames.org/719819/hungary.html","key":"Ungarn","lat":"47","long":"20","pos":"Bae_TB_7_7367"},{"name":"Ungarn","name_today":"Magyarország","pid":"https://www.geonames.org/719819/hungary.html","key":"Ungarn","lat":"47","long":"20","pos":"Bae_TB_7_7420"},{"name":"Ungarn","name_today":"Magyarország","pid":"https://www.geonames.org/719819/hungary.html","key":"Ungarn","lat":"47","long":"20","pos":"Bae_TB_7_7500"},{"name":"Ungarn","name_today":"Magyarország","pid":"https://www.geonames.org/719819/hungary.html","key":"Ungarn","lat":"47","long":"20","pos":"Bae_TB_7_7530"},{"name":"Ungarn","name_today":"Magyarország","pid":"https://www.geonames.org/719819/hungary.html","key":"Ungarn","lat":"47","long":"20","pos":"Bae_TB_7_7582"},{"name":"Ungarn","name_today":"Magyarország","pid":"https://www.geonames.org/719819/hungary.html","key":"Ungarn","lat":"47","long":"20","pos":"Bae_TB_7_7750"},{"name":"Ungarn","name_today":"Magyarország","pid":"https://www.geonames.org/719819/hungary.html","key":"Ungarn","lat":"47","long":"20","pos":"Bae_TB_7_7914"},{"name":"Ungarn","name_today":"Magyarország","pid":"https://www.geonames.org/719819/hungary.html","key":"Ungarn","lat":"47","long":"20","pos":"Bae_TB_7_7959"},{"name":"Ungarn","name_today":"Magyarország","pid":"https://www.geonames.org/719819/hungary.html","key":"Ungarn","lat":"47","long":"20","pos":"Bae_TB_7_8084"},{"name":"Ungarn","name_today":"Magyarország","pid":"https://www.geonames.org/719819/hungary.html","key":"Ungarn","lat":"47","long":"20","pos":"Bae_TB_7_8139"},{"name":"Ungarn","name_today":"Magyarország","pid":"https://www.geonames.org/719819/hungary.html","key":"Ungarn","lat":"47","long":"20","pos":"Bae_TB_7_8529"},{"name":"Ungarn","name_today":"Magyarország","pid":"https://www.geonames.org/719819/hungary.html","key":"Ungarn","lat":"47","long":"20","pos":"Bae_TB_7_8542"},{"name":"Ungarn","name_today":"Magyarország","pid":"https://www.geonames.org/719819/hungary.html","key":"Ungarn","lat":"47","long":"20","pos":"Bae_TB_7_9320"},{"name":"Ungarn","name_today":"Magyarország","pid":"https://www.geonames.org/719819/hungary.html","key":"Ungarn","lat":"47","long":"20","pos":"Bae_TB_7_9560"},{"name":"Ungarn","name_today":"Magyarország","pid":"https://www.geonames.org/719819/hungary.html","key":"Ungarn","lat":"47","long":"20","pos":"Bae_TB_7_9866"},{"name":"Ungarn","name_today":"Magyarország","pid":"https://www.geonames.org/719819/hungary.html","key":"Ungarn","lat":"47","long":"20","pos":"Bae_TB_7_10065"},{"name":"Ungarn","name_today":"Magyarország","pid":"https://www.geonames.org/719819/hungary.html","key":"Ungarn","lat":"47","long":"20","pos":"Bae_TB_7_11038"},{"name":"Ungarn","name_today":"Magyarország","pid":"https://www.geonames.org/719819/hungary.html","key":"Ungarn","lat":"47","long":"20","pos":"Bae_TB_7_11080"},{"name":"Ungarn","name_today":"Magyarország","pid":"https://www.geonames.org/719819/hungary.html","key":"Ungarn","lat":"47","long":"20","pos":"Bae_TB_8_3164"},{"name":"Ungarn","name_today":"Magyarország","pid":"https://www.geonames.org/719819/hungary.html","key":"Ungarn","lat":"47","long":"20","pos":"Bae_TB_8_3686"},{"name":"Ungarn","name_today":"Magyarország","pid":"https://www.geonames.org/719819/hungary.html","key":"Ungarn","lat":"47","long":"20","pos":"Bae_TB_8_5947"},{"name":"Ungarn","name_today":"Magyarország","pid":"https://www.geonames.org/719819/hungary.html","key":"Ungarn","lat":"47","long":"20","pos":"Bae_TB_8_6033"},{"name":"Wien","name_today":"","pid":"https://www.geonames.org/2761367/wien.html","key":"Wien","lat":"48.20849","long":"16.37208","pos":"Bae_MF_6-1_1072"},{"name":"Wien","name_today":"","pid":"https://www.geonames.org/2761367/wien.html","key":"Wien","lat":"48.20849","long":"16.37208","pos":"Bae_MF_6-1_2423"},{"name":"Wien","name_today":"","pid":"https://www.geonames.org/2761367/wien.html","key":"Wien","lat":"48.20849","long":"16.37208","pos":"Bae_MF_6-1_2692"},{"name":"Wien","name_today":"","pid":"https://www.geonames.org/2761367/wien.html","key":"Wien","lat":"48.20849","long":"16.37208","pos":"Bae_MF_6-1_3726"},{"name":"Wien","name_today":"","pid":"https://www.geonames.org/2761367/wien.html","key":"Wien","lat":"48.20849","long":"16.37208","pos":"Bae_MF_6-1_4070"},{"name":"Wien","name_today":"","pid":"https://www.geonames.org/2761367/wien.html","key":"Wien","lat":"48.20849","long":"16.37208","pos":"Bae_MF_6-1_4576"},{"name":"Wien","name_today":"","pid":"https://www.geonames.org/2761367/wien.html","key":"Wien","lat":"48.20849","long":"16.37208","pos":"Bae_MF_6-1_5033"},{"name":"Wien","name_today":"","pid":"https://www.geonames.org/2761367/wien.html","key":"Wien","lat":"48.20849","long":"16.37208","pos":"Bae_MF_6-1_5319"},{"name":"Wien","name_today":"","pid":"https://www.geonames.org/2761367/wien.html","key":"Wien","lat":"48.20849","long":"16.37208","pos":"Bae_MF_6-1_5420"},{"name":"Wien","name_today":"","pid":"https://www.geonames.org/2761367/wien.html","key":"Wien","lat":"48.20849","long":"16.37208","pos":"Bae_MF_6-1_5611"},{"name":"Wien","name_today":"","pid":"https://www.geonames.org/2761367/wien.html","key":"Wien","lat":"48.20849","long":"16.37208","pos":"Bae_MF_6-2_1754"},{"name":"Wien","name_today":"","pid":"https://www.geonames.org/2761367/wien.html","key":"Wien","lat":"48.20849","long":"16.37208","pos":"Bae_MF_6-2_2439"},{"name":"Wien","name_today":"","pid":"https://www.geonames.org/2761367/wien.html","key":"Wien","lat":"48.20849","long":"16.37208","pos":"Bae_MF_6-2_3982"},{"name":"Wien","name_today":"","pid":"https://www.geonames.org/2761367/wien.html","key":"Wien","lat":"48.20849","long":"16.37208","pos":"Bae_MF_6-2_5775"},{"name":"Wien","name_today":"","pid":"https://www.geonames.org/2761367/wien.html","key":"Wien","lat":"48.20849","long":"16.37208","pos":"Bae_MF_6-2_5998"},{"name":"Wien","name_today":"","pid":"https://www.geonames.org/2761367/wien.html","key":"Wien","lat":"48.20849","long":"16.37208","pos":"Bae_MF_6-2_6095"},{"name":"Wien","name_today":"","pid":"https://www.geonames.org/2761367/wien.html","key":"Wien","lat":"48.20849","long":"16.37208","pos":"Bae_MF_6-2_6103"},{"name":"Wien","name_today":"","pid":"https://www.geonames.org/2761367/wien.html","key":"Wien","lat":"48.20849","long":"16.37208","pos":"Bae_MF_6-2_6266"},{"name":"Wien","name_today":"","pid":"https://www.geonames.org/2761369/vienna.html","key":"Wien","lat":"48.20849","long":"16.37208","pos":"Bae_TB_7_10154"},{"name":"Wien","name_today":"","pid":"https://www.geonames.org/2761369/vienna.html","key":"Wien","lat":"48.20849","long":"16.37208","pos":"Bae_TB_7_11593"},{"name":"Wien","name_today":"","pid":"https://www.geonames.org/2761369/vienna.html","key":"Wien","lat":"48.20849","long":"16.37208","pos":"Bae_TB_7_11719"},{"name":"Wien","name_today":"","pid":"https://www.geonames.org/2761369/vienna.html","key":"Wien","lat":"48.20849","long":"16.37208","pos":"Bae_TB_7_12428"},{"name":"Wien","name_today":"","pid":"https://www.geonames.org/2761369/vienna.html","key":"Wien","lat":"48.20849","long":"16.37208","pos":"Bae_TB_7_12517"},{"name":"Wien","name_today":"","pid":"https://www.geonames.org/2761369/vienna.html","key":"Wien","lat":"48.20849","long":"16.37208","pos":"Bae_TB_7_13481"},{"name":"Wien","name_today":"","pid":"https://www.geonames.org/2761369/vienna.html","key":"Wien","lat":"48.20849","long":"16.37208","pos":"Bae_TB_7_1809"},{"name":"Wien","name_today":"","pid":"https://www.geonames.org/2761369/vienna.html","key":"Wien","lat":"48.20849","long":"16.37208","pos":"Bae_TB_7_2675"},{"name":"Wien","name_today":"","pid":"https://www.geonames.org/2761369/vienna.html","key":"Wien","lat":"48.20849","long":"16.37208","pos":"Bae_TB_7_5946"},{"name":"Wien","name_today":"","pid":"https://www.geonames.org/2761369/vienna.html","key":"Wien","lat":"48.20849","long":"16.37208","pos":"Bae_TB_7_6437"},{"name":"Wien","name_today":"","pid":"https://www.geonames.org/2761369/vienna.html","key":"Wien","lat":"48.20849","long":"16.37208","pos":"Bae_TB_7_6761"},{"name":"Wien","name_today":"","pid":"https://www.geonames.org/2761369/vienna.html","key":"Wien","lat":"48.20849","long":"16.37208","pos":"Bae_TB_7_6844"},{"name":"Wien","name_today":"","pid":"https://www.geonames.org/2761369/vienna.html","key":"Wien","lat":"48.20849","long":"16.37208","pos":"Bae_TB_7_6988"},{"name":"Wien","name_today":"","pid":"https://www.geonames.org/2761369/vienna.html","key":"Wien","lat":"48.20849","long":"16.37208","pos":"Bae_TB_7_8474"},{"name":"Wien","name_today":"","pid":"https://www.geonames.org/2761369/vienna.html","key":"Wien","lat":"48.20849","long":"16.37208","pos":"Bae_TB_7_9160"},{"name":"Wien","name_today":"","pid":"https://www.geonames.org/2761369/vienna.html","key":"Wien","lat":"48.20849","long":"16.37208","pos":"Bae_TB_7_9664"},{"name":"Wien","name_today":"","pid":"https://www.geonames.org/2761369/vienna.html","key":"Wien","lat":"48.20849","long":"16.37208","pos":"Bae_TB_7_11099"},{"name":"Wien","name_today":"","pid":"https://www.geonames.org/2761369/vienna.html","key":"Wien","lat":"48.20849","long":"16.37208","pos":"Bae_TB_7_12006"},{"name":"Wien","name_today":"","pid":"https://www.geonames.org/2761367/wien.html","key":"Wien","lat":"48.20849","long":"16.37208","pos":"Bae_TB_8_3030"},{"name":"Wien","name_today":"","pid":"https://www.geonames.org/2761367/wien.html","key":"Wien","lat":"48.20849","long":"16.37208","pos":"Bae_TB_8_3844"},{"name":"Wien","name_today":"","pid":"https://www.geonames.org/2761367/wien.html","key":"Wien","lat":"48.20849","long":"16.37208","pos":"Bae_TB_8_4183"},{"name":"Wien","name_today":"","pid":"https://www.geonames.org/2761367/wien.html","key":"Wien","lat":"48.20849","long":"16.37208","pos":"Bae_TB_8_4258"},{"name":"Wien","name_today":"","pid":"https://www.geonames.org/2761367/wien.html","key":"Wien","lat":"48.20849","long":"16.37208","pos":"Bae_TB_8_4268"},{"name":"Wien","name_today":"","pid":"https://www.geonames.org/2761367/wien.html","key":"Wien","lat":"48.20849","long":"16.37208","pos":"Bae_TB_8_4693"},{"name":"Wien","name_today":"","pid":"https://www.geonames.org/2761369/vienna.html","key":"Wien","lat":"48.20849","long":"16.37208","pos":"Bae_TB_8_4763"},{"name":"Winar","name_today":"Vinaře","pid":"https://www.geonames.org/11924319/vinare.html","key":"Winar","lat":"","long":"","pos":"Bae_TB_8_3826"},{"name":"Woerth","name_today":"","pid":"https://www.geonames.org/2967305/woerth.html","key":"Woerth","lat":"48.3892","long":"7.63498","pos":"Bae_MF_6-1_1783"},{"name":"Zara","name_today":"Zadar","pid":"https://www.geonames.org/11055010/zadar.html","key":"Zara","lat":"44.12172","long":"15.23018","pos":"Bae_TB_7_1885"},{"name":"Zara","name_today":"Zadar","pid":"https://www.geonames.org/11055010/zadar.html","key":"Zara","lat":"44.12172","long":"15.23018","pos":"Bae_TB_7_1889"}]}}